[{"id":8077,"location":{"latitude":50.062006,"longitude":19.940984},"address":{"country":"Poland","city":"Kraków","street":"Mikołajska","number":"4","displayAddress1":"Kraków","displayAddress2":"Mikołajska"},"elevation":220.38,"airly":true,"sponsor":{"id":489,"name":"Chatham Financial","description":"Airly Sensor's sponsor","logo":"https://cdn.airly.eu/logo/ChathamFinancial_1570109001008_473803190.jpg","link":"https://crossweb.pl/job/chatham-financial/ "}},{"id":10216,"location":{"latitude":50.062354,"longitude":19.944671},"address":{"country":"Poland","city":"Kraków","street":"Westerplatte","number":"31","displayAddress1":"Kraków","displayAddress2":"Westerplatte"},"elevation":216.26,"airly":true,"sponsor":{"id":573,"name":"LIFE URBANGREEN","description":"Airly Sensor's sponsor","logo":"https://cdn.airly.eu/logo/LIFE_URBANGREEN.jpg","link":"https://www.lifeurbangreen.eu/pl/"}},{"id":10213,"location":{"latitude":50.064539,"longitude":19.942561},"address":{"country":"Poland","city":"Kraków","street":"Pijarska","number":"23","displayAddress1":"Kraków","displayAddress2":"Pijarska"},"elevation":219.13,"airly":true,"sponsor":{"id":573,"name":"LIFE URBANGREEN","description":"Airly Sensor's sponsor","logo":"https://cdn.airly.eu/logo/LIFE_URBANGREEN.jpg","link":"https://www.lifeurbangreen.eu/pl/"}},{"id":10211,"location":{"latitude":50.059085,"longitude":19.933919},"address":{"country":"Poland","city":"Kraków","street":"Franciszkańska","number":"3","displayAddress1":"Kraków","displayAddress2":"Franciszkańska"},"elevation":209.56,"airly":true,"sponsor":{"id":573,"name":"LIFE URBANGREEN","description":"Airly Sensor's sponsor","logo":"https://cdn.airly.eu/logo/LIFE_URBANGREEN.jpg","link":"https://www.lifeurbangreen.eu/pl/"}},{"id":58,"location":{"latitude":50.057447,"longitude":19.946008},"address":{"country":"Poland","city":"Kraków","street":"Dietla","number":"84","displayAddress1":"Kraków","displayAddress2":"Dietla"},"elevation":208.99,"airly":false,"sponsor":{"id":11,"name":"State Environmental Monitoring Station","description":"","logo":"https://cdn.airly.eu/logo/GIOs.jpg","link":null}},{"id":1096,"location":{"latitude":50.06448,"longitude":19.931761},"address":{"country":"Poland","city":"Kraków","street":"Karmelicka","number":"16","displayAddress1":"Kraków","displayAddress2":"Karmelicka 14"},"elevation":212.22,"airly":true,"sponsor":{"id":49,"name":"Anonimowy","description":"Airly Sensor's sponsor","logo":"https://cdn.airly.eu/logo/Ambasador_Airly.jpg","link":null}},{"id":9924,"location":{"latitude":50.055163,"longitude":19.947015},"address":{"country":"Poland","city":"Kraków","street":"Starowiślna","number":"38","displayAddress1":"Kraków","displayAddress2":"Starowiślna"},"elevation":207.89,"airly":true,"sponsor":{"id":556,"name":"Zostań ambasadorem tego czujnika","description":"Airly Sensor is part of action","logo":"https://cdn.airly.eu/logo/Zostaambasadoremtegoczujnika_1568195322715_1084166514.png","link":"https://airly.eu/contact/"}},{"id":9910,"location":{"latitude":50.062418,"longitude":19.928368},"address":{"country":"Poland","city":"Kraków","street":"Studencka","number":"27","displayAddress1":"Kraków","displayAddress2":"Studencka"},"elevation":209.42,"airly":true,"sponsor":{"id":556,"name":"Zostań ambasadorem tego czujnika","description":"Airly Sensor is part of action","logo":"https://cdn.airly.eu/logo/Zostaambasadoremtegoczujnika_1568195322715_1084166514.png","link":"https://airly.eu/contact/"}},{"id":10048,"location":{"latitude":50.070088,"longitude":19.943812},"address":{"country":"Poland","city":"Kraków","street":"Warszawska","number":"19","displayAddress1":"Kraków","displayAddress2":"Warszawska"},"elevation":217.98,"airly":true,"sponsor":{"id":573,"name":"LIFE URBANGREEN","description":"Airly Sensor's sponsor","logo":"https://cdn.airly.eu/logo/LIFE_URBANGREEN.jpg","link":"https://www.lifeurbangreen.eu/pl/"}},{"id":2277,"location":{"latitude":50.056538,"longitude":19.954229},"address":{"country":"Poland","city":"Kraków","street":"Prochowa","number":"1","displayAddress1":"Kraków","displayAddress2":"Prochowa 1"},"elevation":203.75,"airly":true,"sponsor":{"id":22,"name":"Aviva","description":"Airly Sensor's sponsor","logo":"https://cdn.airly.eu/logo/Aviva_1538146740542_399306786.jpg","link":"https://wiemczymoddycham.pl/"}},{"id":17,"location":{"latitude":50.057678,"longitude":19.926189},"address":{"country":"Poland","city":"Kraków","street":"Aleje Trzech Wieszczów","number":"11","displayAddress1":"Kraków","displayAddress2":"Aleje Trzech Wieszczów"},"elevation":207.86,"airly":false,"sponsor":{"id":11,"name":"State Environmental Monitoring Station","description":"","logo":"https://cdn.airly.eu/logo/GIOs.jpg","link":null}},{"id":820,"location":{"latitude":50.052433,"longitude":19.949579},"address":{"country":"Poland","city":"Kraków","street":"Starowiślna","number":"79a","displayAddress1":"Kraków","displayAddress2":"Starowiślna 79"},"elevation":207.02,"airly":true,"sponsor":{"id":49,"name":"Anonimowy","description":"Airly Sensor's sponsor","logo":"https://cdn.airly.eu/logo/Ambasador_Airly.jpg","link":null}},{"id":10044,"location":{"latitude":50.063904,"longitude":19.922548},"address":{"country":"Poland","city":"Kraków","street":"Reymonta","number":"3","displayAddress1":"Kraków","displayAddress2":"Reymonta"},"elevation":207.61,"airly":true,"sponsor":{"id":573,"name":"LIFE URBANGREEN","description":"Airly Sensor's sponsor","logo":"https://cdn.airly.eu/logo/LIFE_URBANGREEN.jpg","link":"https://www.lifeurbangreen.eu/pl/"}},{"id":8076,"location":{"latitude":50.054907,"longitude":19.956501},"address":{"country":"Poland","city":"Kraków","street":"Masarska","number":"9","displayAddress1":"Kraków","displayAddress2":"Masarska"},"elevation":203.13,"airly":true,"sponsor":{"id":489,"name":"Chatham Financial","description":"Airly Sensor's sponsor","logo":"https://cdn.airly.eu/logo/ChathamFinancial_1570109001008_473803190.jpg","link":"https://crossweb.pl/job/chatham-financial/ "}},{"id":9919,"location":{"latitude":50.066747,"longitude":19.962083},"address":{"country":"Poland","city":"Kraków","street":"Kielecka","number":"6/6 31-526","displayAddress1":"Kraków","displayAddress2":"Kielecka"},"elevation":208.91,"airly":true,"sponsor":{"id":556,"name":"Zostań ambasadorem tego czujnika","description":"Airly Sensor is part of action","logo":"https://cdn.airly.eu/logo/Zostaambasadoremtegoczujnika_1568195322715_1084166514.png","link":"https://airly.eu/contact/"}},{"id":10043,"location":{"latitude":50.064567,"longitude":19.918564},"address":{"country":"Poland","city":"Kraków","street":"Reymonta","number":"11","displayAddress1":"Kraków","displayAddress2":"Reymonta"},"elevation":205.33,"airly":true,"sponsor":{"id":573,"name":"LIFE URBANGREEN","description":"Airly Sensor's sponsor","logo":"https://cdn.airly.eu/logo/LIFE_URBANGREEN.jpg","link":"https://www.lifeurbangreen.eu/pl/"}},{"id":9885,"location":{"latitude":50.07769,"longitude":19.935777},"address":{"country":"Poland","city":"Kraków","street":"Prądnicka","number":"22","displayAddress1":"Kraków","displayAddress2":"Prądnicka"},"elevation":220.01,"airly":true,"sponsor":{"id":556,"name":"Zostań ambasadorem tego czujnika","description":"Airly Sensor is part of action","logo":"https://cdn.airly.eu/logo/Zostaambasadoremtegoczujnika_1568195322715_1084166514.png","link":"https://airly.eu/contact/"}},{"id":9915,"location":{"latitude":50.071719,"longitude":19.962347},"address":{"country":"Poland","city":"Kraków","street":"Generała Józefa Bema","number":"14","displayAddress1":"Kraków","displayAddress2":"Generała Józefa Bema"},"elevation":209.46,"airly":true,"sponsor":{"id":556,"name":"Zostań ambasadorem tego czujnika","description":"Airly Sensor is part of action","logo":"https://cdn.airly.eu/logo/Zostaambasadoremtegoczujnika_1568195322715_1084166514.png","link":"https://airly.eu/contact/"}},{"id":9901,"location":{"latitude":50.057242,"longitude":19.914874},"address":{"country":"Poland","city":"Kraków","street":"Leona Wyczółkowskiego","number":"7","displayAddress1":"Kraków","displayAddress2":"Leona Wyczółkowskiego"},"elevation":203.11,"airly":true,"sponsor":{"id":556,"name":"Zostań ambasadorem tego czujnika","description":"Airly Sensor is part of action","logo":"https://cdn.airly.eu/logo/Zostaambasadoremtegoczujnika_1568195322715_1084166514.png","link":"https://airly.eu/contact/"}},{"id":9905,"location":{"latitude":50.079672,"longitude":19.94919},"address":{"country":"Poland","city":"Kraków","street":"Rogatka","number":"3","displayAddress1":"Kraków","displayAddress2":"Rogatka"},"elevation":215.6,"airly":true,"sponsor":{"id":556,"name":"Zostań ambasadorem tego czujnika","description":"Airly Sensor is part of action","logo":"https://cdn.airly.eu/logo/Zostaambasadoremtegoczujnika_1568195322715_1084166514.png","link":"https://airly.eu/contact/"}},{"id":10040,"location":{"latitude":50.06842,"longitude":19.913782},"address":{"country":"Poland","city":"Kraków","street":null,"number":null,"displayAddress1":"Kraków","displayAddress2":null},"elevation":205.16,"airly":true,"sponsor":{"id":573,"name":"LIFE URBANGREEN","description":"Airly Sensor's sponsor","logo":"https://cdn.airly.eu/logo/LIFE_URBANGREEN.jpg","link":"https://www.lifeurbangreen.eu/pl/"}},{"id":9920,"location":{"latitude":50.044424,"longitude":19.952205},"address":{"country":"Poland","city":"Kraków","street":"Krakusa","number":"11","displayAddress1":"Kraków","displayAddress2":"Krakusa"},"elevation":205.57,"airly":true,"sponsor":{"id":556,"name":"Zostań ambasadorem tego czujnika","description":"Airly Sensor is part of action","logo":"https://cdn.airly.eu/logo/Zostaambasadoremtegoczujnika_1568195322715_1084166514.png","link":"https://airly.eu/contact/"}},{"id":842,"location":{"latitude":50.04248,"longitude":19.94433},"address":{"country":"Poland","city":"Kraków","street":"Kalwaryjska","number":"30","displayAddress1":"Kraków","displayAddress2":"Kalwaryjska 30"},"elevation":204.47,"airly":true,"sponsor":{"id":49,"name":"Anonimowy","description":"Airly Sensor's sponsor","logo":"https://cdn.airly.eu/logo/Ambasador_Airly.jpg","link":null}},{"id":9895,"location":{"latitude":50.047736,"longitude":19.919646},"address":{"country":"Poland","city":"Kraków","street":"Adolfa Nowaczyńskiego","number":"6","displayAddress1":"Kraków","displayAddress2":"Adolfa Nowaczyńskiego"},"elevation":203.46,"airly":true,"sponsor":{"id":556,"name":"Zostań ambasadorem tego czujnika","description":"Airly Sensor is part of action","logo":"https://cdn.airly.eu/logo/Zostaambasadoremtegoczujnika_1568195322715_1084166514.png","link":"https://airly.eu/contact/"}},{"id":2935,"location":{"latitude":50.072968,"longitude":19.914829},"address":{"country":"Poland","city":"Kraków","street":"Królewska","number":"88","displayAddress1":"Kraków","displayAddress2":"Królewska"},"elevation":211.32,"airly":true,"sponsor":{"id":49,"name":"Anonimowy","description":"Airly Sensor's sponsor","logo":"https://cdn.airly.eu/logo/Ambasador_Airly.jpg","link":null}},{"id":8165,"location":{"latitude":50.072763,"longitude":19.911081},"address":{"country":"Poland","city":"Kraków","street":"Leopolda Staffa","number":"8","displayAddress1":"Kraków","displayAddress2":"Leopolda Staffa"},"elevation":211.04,"airly":true,"sponsor":{"id":504,"name":"Przedszkole Niepubliczne Iskierka","description":"Airly Sensor's sponsor","logo":"https://cdn.airly.eu/logo/PrzedszkoleNiepubliczneIskierka_1556631443591_1484232525.jpg","link":"http://przedszkoleiskierka.pl/"}},{"id":2339,"location":{"latitude":50.082885,"longitude":19.953467},"address":{"country":"Poland","city":"Kraków","street":"Wileńska","number":"4","displayAddress1":"Kraków","displayAddress2":"Wileńska 4"},"elevation":213.27,"airly":true,"sponsor":{"id":22,"name":"Aviva","description":"Airly Sensor's sponsor","logo":"https://cdn.airly.eu/logo/Aviva_1538146740542_399306786.jpg","link":"https://wiemczymoddycham.pl/"}},{"id":10053,"location":{"latitude":50.08017,"longitude":19.918918},"address":{"country":"Poland","city":"Kraków","street":"Wrocławska","number":"76","displayAddress1":"Kraków","displayAddress2":"Wrocławska"},"elevation":214.8,"airly":true,"sponsor":{"id":573,"name":"LIFE URBANGREEN","description":"Airly Sensor's sponsor","logo":"https://cdn.airly.eu/logo/LIFE_URBANGREEN.jpg","link":"https://www.lifeurbangreen.eu/pl/"}},{"id":1026,"location":{"latitude":50.038499,"longitude":19.94685},"address":{"country":"Poland","city":"Kraków","street":"Krzemionki","number":"30","displayAddress1":"Kraków","displayAddress2":"Krzemionki"},"elevation":240.9,"airly":true,"sponsor":{"id":49,"name":"Anonimowy","description":"Airly Sensor's sponsor","logo":"https://cdn.airly.eu/logo/Ambasador_Airly.jpg","link":null}},{"id":9576,"location":{"latitude":50.043741,"longitude":19.966589},"address":{"country":"Poland","city":"Kraków","street":"Powstańców Wielkopolskich","number":"13G","displayAddress1":"Kraków","displayAddress2":"Powstańców Wielkopolskich"},"elevation":201.63,"airly":true,"sponsor":{"id":546,"name":"Aon","description":"Airly Sensor's sponsor","logo":"https://cdn.airly.eu/logo/Aon_1564567021883_1831270027.jpg","link":null}},{"id":10039,"location":{"latitude":50.067312,"longitude":19.90336},"address":{"country":"Poland","city":"Kraków","street":"Reymonta","number":"37","displayAddress1":"Kraków","displayAddress2":"Reymonta"},"elevation":203.88,"airly":true,"sponsor":{"id":573,"name":"LIFE URBANGREEN","description":"Airly Sensor's sponsor","logo":"https://cdn.airly.eu/logo/LIFE_URBANGREEN.jpg","link":"https://www.lifeurbangreen.eu/pl/"}},{"id":7654,"location":{"latitude":50.078915,"longitude":19.971742},"address":{"country":"Poland","city":"Kraków","street":"Pilotów","number":"39","displayAddress1":"Kraków","displayAddress2":"Pilotów 39"},"elevation":205.81,"airly":true,"sponsor":{"id":49,"name":"Anonimowy","description":"Airly Sensor's sponsor","logo":"https://cdn.airly.eu/logo/Ambasador_Airly.jpg","link":null}},{"id":7661,"location":{"latitude":50.068613,"longitude":19.983723},"address":{"country":"Poland","city":"Kraków","street":"Dąbska","number":"18D","displayAddress1":"Kraków","displayAddress2":"Dąbska"},"elevation":201.17,"airly":true,"sponsor":{"id":22,"name":"Aviva","description":"Airly Sensor's sponsor","logo":"https://cdn.airly.eu/logo/Aviva_1538146740542_399306786.jpg","link":"https://wiemczymoddycham.pl/"}},{"id":9896,"location":{"latitude":50.057537,"longitude":19.897547},"address":{"country":"Poland","city":"Kraków","street":"Vlastimila Hofmana","number":"22","displayAddress1":"Kraków","displayAddress2":"Vlastimila Hofmana"},"elevation":222.87,"airly":true,"sponsor":{"id":556,"name":"Zostań ambasadorem tego czujnika","description":"Airly Sensor is part of action","logo":"https://cdn.airly.eu/logo/Zostaambasadoremtegoczujnika_1568195322715_1084166514.png","link":"https://airly.eu/contact/"}},{"id":9897,"location":{"latitude":50.084134,"longitude":19.968416},"address":{"country":"Poland","city":"Kraków","street":"Macieja Miechowity","number":"17A","displayAddress1":"Kraków","displayAddress2":"Macieja Miechowity"},"elevation":210.94,"airly":true,"sponsor":{"id":556,"name":"Zostań ambasadorem tego czujnika","description":"Airly Sensor is part of action","logo":"https://cdn.airly.eu/logo/Zostaambasadoremtegoczujnika_1568195322715_1084166514.png","link":"https://airly.eu/contact/"}},{"id":9911,"location":{"latitude":50.055138,"longitude":19.89457},"address":{"country":"Poland","city":"Kraków","street":"aleja Jerzego Waszyngtona","number":"1","displayAddress1":"Kraków","displayAddress2":"aleja Jerzego Waszyngtona"},"elevation":291.24,"airly":true,"sponsor":{"id":556,"name":"Zostań ambasadorem tego czujnika","description":"Airly Sensor is part of action","logo":"https://cdn.airly.eu/logo/Zostaambasadoremtegoczujnika_1568195322715_1084166514.png","link":"https://airly.eu/contact/"}},{"id":2185,"location":{"latitude":50.072281,"longitude":19.895887},"address":{"country":"Poland","city":"Kraków","street":"Stanisława Kunickiego","number":"58","displayAddress1":"Kraków","displayAddress2":"Przybyszewskiego 56"},"elevation":208.49,"airly":true,"sponsor":{"id":22,"name":"Aviva","description":"Airly Sensor's sponsor","logo":"https://cdn.airly.eu/logo/Aviva_1538146740542_399306786.jpg","link":"https://wiemczymoddycham.pl/"}},{"id":7848,"location":{"latitude":50.086574,"longitude":19.974824},"address":{"country":"Poland","city":"Kraków","street":"Lublańska","number":"38","displayAddress1":"Kraków","displayAddress2":"Lublańska"},"elevation":216.23,"airly":true,"sponsor":{"id":22,"name":"Aviva","description":"Airly Sensor's sponsor","logo":"https://cdn.airly.eu/logo/Aviva_1538146740542_399306786.jpg","link":"https://wiemczymoddycham.pl/"}},{"id":10279,"location":{"latitude":50.07413,"longitude":19.989012},"address":{"country":"Poland","city":"Kraków","street":"aleja Jana Pawła II","number":"21","displayAddress1":"Kraków","displayAddress2":"aleja Jana Pawła II"},"elevation":210.79,"airly":true,"sponsor":{"id":573,"name":"LIFE URBANGREEN","description":"Airly Sensor's sponsor","logo":"https://cdn.airly.eu/logo/LIFE_URBANGREEN.jpg","link":"https://www.lifeurbangreen.eu/pl/"}},{"id":2689,"location":{"latitude":50.094647,"longitude":19.951518},"address":{"country":"Poland","city":"Kraków","street":"Bociana","number":"22","displayAddress1":"Kraków","displayAddress2":"Bociana"},"elevation":214.23,"airly":true,"sponsor":{"id":22,"name":"Aviva","description":"Airly Sensor's sponsor","logo":"https://cdn.airly.eu/logo/Aviva_1538146740542_399306786.jpg","link":"https://wiemczymoddycham.pl/"}},{"id":9888,"location":{"latitude":50.093619,"longitude":19.924138},"address":{"country":"Poland","city":"Kraków","street":"Henryka Pachońskiego","number":"4","displayAddress1":"Kraków","displayAddress2":"Henryka Pachońskiego"},"elevation":223.96,"airly":true,"sponsor":{"id":556,"name":"Zostań ambasadorem tego czujnika","description":"Airly Sensor is part of action","logo":"https://cdn.airly.eu/logo/Zostaambasadoremtegoczujnika_1568195322715_1084166514.png","link":"https://airly.eu/contact/"}},{"id":10042,"location":{"latitude":50.070066,"longitude":19.991724},"address":{"country":"Poland","city":"Kraków","street":"Unnamed Road","number":null,"displayAddress1":"Kraków","displayAddress2":"Unnamed Road"},"elevation":203.0,"airly":true,"sponsor":{"id":573,"name":"LIFE URBANGREEN","description":"Airly Sensor's sponsor","logo":"https://cdn.airly.eu/logo/LIFE_URBANGREEN.jpg","link":"https://www.lifeurbangreen.eu/pl/"}},{"id":60,"location":{"latitude":50.081197,"longitude":19.895358},"address":{"country":"Poland","city":"Kraków","street":"Racheli","number":"13640","displayAddress1":"Kraków","displayAddress2":"Racheli"},"elevation":217.76,"airly":false,"sponsor":{"id":11,"name":"State Environmental Monitoring Station","description":"","logo":"https://cdn.airly.eu/logo/GIOs.jpg","link":null}},{"id":2743,"location":{"latitude":50.04373,"longitude":19.987849},"address":{"country":"Poland","city":"Kraków","street":"Przewóz","number":"14","displayAddress1":"Kraków","displayAddress2":"Przewóz"},"elevation":199.35,"airly":true,"sponsor":{"id":22,"name":"Aviva","description":"Airly Sensor's sponsor","logo":"https://cdn.airly.eu/logo/Aviva_1538146740542_399306786.jpg","link":"https://wiemczymoddycham.pl/"}},{"id":10032,"location":{"latitude":50.026411,"longitude":19.950116},"address":{"country":"Poland","city":"Kraków","street":"Puszkarska","number":"7f","displayAddress1":"Kraków","displayAddress2":"Puszkarska"},"elevation":221.59,"airly":true,"sponsor":{"id":574,"name":"Alexander Mann Solutions Poland","description":"Airly Sensor's sponsor","logo":"https://cdn.airly.eu/logo/Puszkarskaf_1571151965400_520248453.jpg","link":"http://alexandermannsolutions.com/"}},{"id":9906,"location":{"latitude":50.066686,"longitude":19.997208},"address":{"country":"Poland","city":"Kraków","street":"Aleja Pokoju","number":"68","displayAddress1":"Kraków","displayAddress2":"Aleja Pokoju"},"elevation":197.66,"airly":true,"sponsor":{"id":556,"name":"Zostań ambasadorem tego czujnika","description":"Airly Sensor is part of action","logo":"https://cdn.airly.eu/logo/Zostaambasadoremtegoczujnika_1568195322715_1084166514.png","link":"https://airly.eu/contact/"}},{"id":10041,"location":{"latitude":50.066227,"longitude":19.997299},"address":{"country":"Poland","city":"Kraków","street":"Aleja Pokoju","number":"68","displayAddress1":"Kraków","displayAddress2":"Aleja Pokoju"},"elevation":198.23,"airly":true,"sponsor":{"id":573,"name":"LIFE URBANGREEN","description":"Airly Sensor's sponsor","logo":"https://cdn.airly.eu/logo/LIFE_URBANGREEN.jpg","link":"https://www.lifeurbangreen.eu/pl/"}},{"id":9904,"location":{"latitude":50.073094,"longitude":19.88675},"address":{"country":"Poland","city":"Kraków","street":"Wiedeńska","number":"108","displayAddress1":"Kraków","displayAddress2":"Wiedeńska"},"elevation":205.58,"airly":true,"sponsor":{"id":556,"name":"Zostań ambasadorem tego czujnika","description":"Airly Sensor is part of action","logo":"https://cdn.airly.eu/logo/Zostaambasadoremtegoczujnika_1568195322715_1084166514.png","link":"https://airly.eu/contact/"}},{"id":9886,"location":{"latitude":50.025251,"longitude":19.937998},"address":{"country":"Poland","city":"Kraków","street":"Ferdynanda Kurasia","number":"19A","displayAddress1":"Kraków","displayAddress2":"Ferdynanda Kurasia"},"elevation":225.82,"airly":true,"sponsor":{"id":556,"name":"Zostań ambasadorem tego czujnika","description":"Airly Sensor is part of action","logo":"https://cdn.airly.eu/logo/Zostaambasadoremtegoczujnika_1568195322715_1084166514.png","link":"https://airly.eu/contact/"}},{"id":8973,"location":{"latitude":50.08069,"longitude":19.99238},"address":{"country":"Poland","city":"Kraków","street":"prof. Michała Życzkowskiego","number":"29","displayAddress1":"Kraków","displayAddress2":"prof. Michała Życzkowskiego"},"elevation":213.09,"airly":true,"sponsor":{"id":276,"name":"Anonymous SmogFighter","description":"","logo":"https://cdn.airly.eu/logo/Smogfighter.jpg","link":"https://www.facebook.com/airlyeu/"}},{"id":9899,"location":{"latitude":50.099239,"longitude":19.953954},"address":{"country":"Poland","city":"Kraków","street":"Macieja Słomczyńskiego","number":"18","displayAddress1":"Kraków","displayAddress2":"Macieja Słomczyńskiego"},"elevation":240.98,"airly":true,"sponsor":{"id":556,"name":"Zostań ambasadorem tego czujnika","description":"Airly Sensor is part of action","logo":"https://cdn.airly.eu/logo/Zostaambasadoremtegoczujnika_1568195322715_1084166514.png","link":"https://airly.eu/contact/"}},{"id":9890,"location":{"latitude":50.096969,"longitude":19.914774},"address":{"country":"Poland","city":"Kraków","street":"Władysława Łokietka","number":"135a","displayAddress1":"Kraków","displayAddress2":"Władysława Łokietka"},"elevation":222.22,"airly":true,"sponsor":{"id":556,"name":"Zostań ambasadorem tego czujnika","description":"Airly Sensor is part of action","logo":"https://cdn.airly.eu/logo/Zostaambasadoremtegoczujnika_1568195322715_1084166514.png","link":"https://airly.eu/contact/"}},{"id":10045,"location":{"latitude":50.065971,"longitude":20.001157},"address":{"country":"Poland","city":"Kraków","street":"Aleja Pokoju","number":null,"displayAddress1":"Kraków","displayAddress2":"Aleja Pokoju"},"elevation":197.65,"airly":true,"sponsor":{"id":573,"name":"LIFE URBANGREEN","description":"Airly Sensor's sponsor","logo":"https://cdn.airly.eu/logo/LIFE_URBANGREEN.jpg","link":"https://www.lifeurbangreen.eu/pl/"}},{"id":2903,"location":{"latitude":50.09422,"longitude":19.905241},"address":{"country":"Poland","city":"Kraków","street":"Stelmachów","number":"125A","displayAddress1":"Kraków","displayAddress2":"Stelmachów"},"elevation":224.07,"airly":true,"sponsor":{"id":22,"name":"Aviva","description":"Airly Sensor's sponsor","logo":"https://cdn.airly.eu/logo/Aviva_1538146740542_399306786.jpg","link":"https://wiemczymoddycham.pl/"}},{"id":7956,"location":{"latitude":50.054622,"longitude":20.002049},"address":{"country":"Poland","city":"Kraków","street":"Błonie-Beszcz","number":"1A","displayAddress1":"Kraków","displayAddress2":"Ciepłownicza "},"elevation":196.53,"airly":true,"sponsor":{"id":462,"name":"P.B.P. \"Łęgprzem\" Sp. z o.o.","description":"Airly Sensor's sponsor","logo":"https://cdn.airly.eu/logo/PBPgprzemSpzoo_1551782087105_821199820.jpg","link":null}},{"id":9921,"location":{"latitude":50.03768,"longitude":19.990546},"address":{"country":"Poland","city":"Kraków","street":"Seweryna Goszczyńskiego","number":"37","displayAddress1":"Kraków","displayAddress2":"Seweryna Goszczyńskiego"},"elevation":200.37,"airly":true,"sponsor":{"id":556,"name":"Zostań ambasadorem tego czujnika","description":"Airly Sensor is part of action","logo":"https://cdn.airly.eu/logo/Zostaambasadoremtegoczujnika_1568195322715_1084166514.png","link":"https://airly.eu/contact/"}},{"id":7514,"location":{"latitude":50.033099,"longitude":19.895774},"address":{"country":"Poland","city":"Kraków","street":"Skalica","number":"21B","displayAddress1":"Kraków","displayAddress2":"Skalica"},"elevation":212.05,"airly":true,"sponsor":{"id":22,"name":"Aviva","description":"Airly Sensor's sponsor","logo":"https://cdn.airly.eu/logo/Aviva_1538146740542_399306786.jpg","link":"https://wiemczymoddycham.pl/"}},{"id":9903,"location":{"latitude":50.044067,"longitude":19.998804},"address":{"country":"Poland","city":"Kraków","street":"Myśliwska","number":"59","displayAddress1":"Kraków","displayAddress2":"Myśliwska"},"elevation":197.37,"airly":true,"sponsor":{"id":556,"name":"Zostań ambasadorem tego czujnika","description":"Airly Sensor is part of action","logo":"https://cdn.airly.eu/logo/Zostaambasadoremtegoczujnika_1568195322715_1084166514.png","link":"https://airly.eu/contact/"}},{"id":2098,"location":{"latitude":50.102596,"longitude":19.917511},"address":{"country":"Poland","city":"Zielonki","street":"Fiołkowa","number":"12","displayAddress1":"Zielonki","displayAddress2":"Fiołkowa"},"elevation":228.5,"airly":true,"sponsor":{"id":238,"name":"Zielonki","description":"Airly Sensor's sponsor","logo":"https://cdn.airly.eu/logo/Zielonki.jpg","link":null}},{"id":9898,"location":{"latitude":50.084966,"longitude":19.877998},"address":{"country":"Poland","city":"Kraków","street":"osiedle Złota Podkowa","number":"36","displayAddress1":"Kraków","displayAddress2":"osiedle Złota Podkowa"},"elevation":230.22,"airly":true,"sponsor":{"id":556,"name":"Zostań ambasadorem tego czujnika","description":"Airly Sensor is part of action","logo":"https://cdn.airly.eu/logo/Zostaambasadoremtegoczujnika_1568195322715_1084166514.png","link":"https://airly.eu/contact/"}},{"id":9907,"location":{"latitude":50.065128,"longitude":19.867504},"address":{"country":"Poland","city":"Kraków","street":"aleja Kasztanowa","number":"9","displayAddress1":"Kraków","displayAddress2":"aleja Kasztanowa"},"elevation":225.86,"airly":true,"sponsor":{"id":556,"name":"Zostań ambasadorem tego czujnika","description":"Airly Sensor is part of action","logo":"https://cdn.airly.eu/logo/Zostaambasadoremtegoczujnika_1568195322715_1084166514.png","link":"https://airly.eu/contact/"}},{"id":7634,"location":{"latitude":50.108332,"longitude":19.924004},"address":{"country":"Poland","city":"Zielonki","street":"Długopolska","number":"15","displayAddress1":"Zielonki","displayAddress2":"Długopolska"},"elevation":229.1,"airly":true,"sponsor":{"id":238,"name":"Zielonki","description":"Airly Sensor's sponsor","logo":"https://cdn.airly.eu/logo/Zielonki.jpg","link":null}},{"id":3282,"location":{"latitude":50.097127,"longitude":19.992093},"address":{"country":"Poland","city":"Kraków","street":"Budziszyńska","number":"44","displayAddress1":"Kraków","displayAddress2":"Budziszyńska"},"elevation":239.07,"airly":true,"sponsor":{"id":52,"name":"Fundacja Make IT Green","description":"Airly Sensor's sponsor","logo":"https://cdn.airly.eu/logo/Fundacja_Make_IT_Green.jpg","link":null}},{"id":9916,"location":{"latitude":50.085346,"longitude":20.007551},"address":{"country":"Poland","city":"Kraków","street":"Osiedle Dywizjonu 303","number":"26","displayAddress1":"Kraków","displayAddress2":"Osiedle Dywizjonu 303"},"elevation":222.43,"airly":true,"sponsor":{"id":556,"name":"Zostań ambasadorem tego czujnika","description":"Airly Sensor is part of action","logo":"https://cdn.airly.eu/logo/Zostaambasadoremtegoczujnika_1568195322715_1084166514.png","link":"https://airly.eu/contact/"}},{"id":9902,"location":{"latitude":50.062677,"longitude":20.018922},"address":{"country":"Poland","city":"Kraków","street":"Sołtysowska","number":"12G","displayAddress1":"Kraków","displayAddress2":"Sołtysowska"},"elevation":198.28,"airly":true,"sponsor":{"id":556,"name":"Zostań ambasadorem tego czujnika","description":"Airly Sensor is part of action","logo":"https://cdn.airly.eu/logo/Zostaambasadoremtegoczujnika_1568195322715_1084166514.png","link":"https://airly.eu/contact/"}},{"id":9908,"location":{"latitude":50.040717,"longitude":19.869575},"address":{"country":"Poland","city":"Kraków","street":"Widłakowa","number":"4C","displayAddress1":"Kraków","displayAddress2":"Widłakowa"},"elevation":203.22,"airly":true,"sponsor":{"id":556,"name":"Zostań ambasadorem tego czujnika","description":"Airly Sensor is part of action","logo":"https://cdn.airly.eu/logo/Zostaambasadoremtegoczujnika_1568195322715_1084166514.png","link":"https://airly.eu/contact/"}},{"id":10463,"location":{"latitude":50.020683,"longitude":19.893553},"address":{"country":"Poland","city":"Kraków","street":"Czerwone Maki","number":"82","displayAddress1":"Kraków","displayAddress2":"Czerwone Maki"},"elevation":222.93,"airly":true,"sponsor":{"id":592,"name":"Motorola Solutions","description":"Airly Sensor's sponsor","logo":"https://cdn.airly.eu/logo/Motorola_1573051245467_1421635042.jpg","link":"https://www.motorolasolutions.com/pl_pl.html "}},{"id":18,"location":{"latitude":50.010575,"longitude":19.949189},"address":{"country":"Poland","city":"Kraków","street":"Porucznika Halszki","number":"16","displayAddress1":"Kraków","displayAddress2":"Porucznika Halszki"},"elevation":224.34,"airly":false,"sponsor":{"id":11,"name":"State Environmental Monitoring Station","description":"","logo":"https://cdn.airly.eu/logo/GIOs.jpg","link":null}},{"id":9887,"location":{"latitude":50.018006,"longitude":19.983935},"address":{"country":"Poland","city":"Kraków","street":"Na Kozłówce","number":"14","displayAddress1":"Kraków","displayAddress2":"Na Kozłówce"},"elevation":238.73,"airly":true,"sponsor":{"id":556,"name":"Zostań ambasadorem tego czujnika","description":"Airly Sensor is part of action","logo":"https://cdn.airly.eu/logo/Zostaambasadoremtegoczujnika_1568195322715_1084166514.png","link":"https://airly.eu/contact/"}},{"id":9917,"location":{"latitude":50.098304,"longitude":19.879415},"address":{"country":"Poland","city":"Kraków","street":"Stawowa","number":"204","displayAddress1":"Kraków","displayAddress2":"Stawowa"},"elevation":249.34,"airly":true,"sponsor":{"id":556,"name":"Zostań ambasadorem tego czujnika","description":"Airly Sensor is part of action","logo":"https://cdn.airly.eu/logo/Zostaambasadoremtegoczujnika_1568195322715_1084166514.png","link":"https://airly.eu/contact/"}},{"id":9914,"location":{"latitude":50.013156,"longitude":19.906306},"address":{"country":"Poland","city":"Kraków","street":"Obozowa","number":"30","displayAddress1":"Kraków","displayAddress2":"Obozowa"},"elevation":233.11,"airly":true,"sponsor":{"id":556,"name":"Zostań ambasadorem tego czujnika","description":"Airly Sensor is part of action","logo":"https://cdn.airly.eu/logo/Zostaambasadoremtegoczujnika_1568195322715_1084166514.png","link":"https://airly.eu/contact/"}},{"id":9889,"location":{"latitude":50.108024,"longitude":19.896124},"address":{"country":"Poland","city":"Kraków","street":"Azaliowa","number":"2A","displayAddress1":"Kraków","displayAddress2":"Azaliowa"},"elevation":227.17,"airly":true,"sponsor":{"id":556,"name":"Zostań ambasadorem tego czujnika","description":"Airly Sensor is part of action","logo":"https://cdn.airly.eu/logo/Zostaambasadoremtegoczujnika_1568195322715_1084166514.png","link":"https://airly.eu/contact/"}},{"id":9894,"location":{"latitude":50.005587,"longitude":19.928973},"address":{"country":"Poland","city":"Kraków","street":"Antoniego Szyllinga","number":"21","displayAddress1":"Kraków","displayAddress2":"Antoniego Szyllinga"},"elevation":234.92,"airly":true,"sponsor":{"id":556,"name":"Zostań ambasadorem tego czujnika","description":"Airly Sensor is part of action","logo":"https://cdn.airly.eu/logo/Zostaambasadoremtegoczujnika_1568195322715_1084166514.png","link":"https://airly.eu/contact/"}},{"id":7456,"location":{"latitude":50.11677,"longitude":19.965575},"address":{"country":"Poland","city":"Węgrzce","street":"Forteczna","number":"3","displayAddress1":"Węgrzce","displayAddress2":"Forteczna"},"elevation":276.62,"airly":true,"sponsor":{"id":238,"name":"Zielonki","description":"Airly Sensor's sponsor","logo":"https://cdn.airly.eu/logo/Zielonki.jpg","link":null}},{"id":2513,"location":{"latitude":50.117763,"longitude":19.92077},"address":{"country":"Poland","city":"Zielonki","street":"Droga Wojewódzka 794","number":"116","displayAddress1":"Zielonki","displayAddress2":"Krakowskie Przedmieście"},"elevation":230.53,"airly":true,"sponsor":{"id":238,"name":"Zielonki","description":"Airly Sensor's sponsor","logo":"https://cdn.airly.eu/logo/Zielonki.jpg","link":null}},{"id":251,"location":{"latitude":50.118583,"longitude":19.926746},"address":{"country":"Poland","city":"Zielonki","street":"Galicyjska","number":"17A","displayAddress1":"Zielonki","displayAddress2":"Galicyjska"},"elevation":235.49,"airly":true,"sponsor":{"id":238,"name":"Zielonki","description":"Airly Sensor's sponsor","logo":"https://cdn.airly.eu/logo/Zielonki.jpg","link":null}},{"id":5651,"location":{"latitude":50.1167,"longitude":19.91429},"address":{"country":"Poland","city":"Zielonki","street":"Księdza Jana Michalika","number":"2","displayAddress1":"Zielonki","displayAddress2":"Księdza Jana Michalika"},"elevation":245.2,"airly":true,"sponsor":{"id":195,"name":"SRGZ","description":"Airly Sensor's sponsor","logo":"https://cdn.airly.eu/logo/SRGZ.jpg","link":null}},{"id":7771,"location":{"latitude":50.013688,"longitude":19.8914},"address":{"country":"Poland","city":"Kraków","street":"Doktora Jana Piltza","number":"42","displayAddress1":"Kraków","displayAddress2":"Doktora Jana Piltza"},"elevation":242.22,"airly":true,"sponsor":{"id":22,"name":"Aviva","description":"Airly Sensor's sponsor","logo":"https://cdn.airly.eu/logo/Aviva_1538146740542_399306786.jpg","link":"https://wiemczymoddycham.pl/"}},{"id":1029,"location":{"latitude":50.078738,"longitude":20.029012},"address":{"country":"Poland","city":"Kraków","street":null,"number":"1","displayAddress1":"Kraków","displayAddress2":"Teatralne 3"},"elevation":214.55,"airly":true,"sponsor":{"id":49,"name":"Anonimowy","description":"Airly Sensor's sponsor","logo":"https://cdn.airly.eu/logo/Ambasador_Airly.jpg","link":null}},{"id":237,"location":{"latitude":50.115496,"longitude":19.98213},"address":{"country":"Poland","city":"Węgrzce","street":"A5","number":"9","displayAddress1":"Węgrzce","displayAddress2":"A5"},"elevation":242.44,"airly":true,"sponsor":{"id":238,"name":"Zielonki","description":"Airly Sensor's sponsor","logo":"https://cdn.airly.eu/logo/Zielonki.jpg","link":null}},{"id":9952,"location":{"latitude":50.10212,"longitude":19.8703},"address":{"country":"Poland","city":"Kraków","street":"Starego Dębu","number":"16","displayAddress1":"Kraków","displayAddress2":"Starego Dębu"},"elevation":270.88,"airly":true,"sponsor":{"id":556,"name":"Zostań ambasadorem tego czujnika","description":"Airly Sensor is part of action","logo":"https://cdn.airly.eu/logo/Zostaambasadoremtegoczujnika_1568195322715_1084166514.png","link":"https://airly.eu/contact/"}},{"id":5624,"location":{"latitude":50.001317,"longitude":19.925144},"address":{"country":"Poland","city":"Kraków","street":"Armii \"Kraków\"","number":"76","displayAddress1":"Kraków","displayAddress2":"Armii \"Kraków\""},"elevation":237.68,"airly":true,"sponsor":{"id":325,"name":"Budżet Obywatelski Miasta Krakowa edycja 2017","description":"Airly Sensor's sponsor","logo":"https://cdn.airly.eu/logo/BudetObywatelskiMiastaKrakowaedycja_1534774335503_210307458.jpg","link":null}},{"id":59,"location":{"latitude":50.098508,"longitude":20.018269},"address":{"country":"Poland","city":"Kraków","street":null,"number":"34","displayAddress1":"Kraków","displayAddress2":null},"elevation":235.03,"airly":false,"sponsor":{"id":11,"name":"State Environmental Monitoring Station","description":"","logo":"https://cdn.airly.eu/logo/GIOs.jpg","link":null}},{"id":239,"location":{"latitude":50.120482,"longitude":19.972246},"address":{"country":"Poland","city":"Węgrzce","street":"A3","number":"1","displayAddress1":"Węgrzce","displayAddress2":"A3"},"elevation":264.39,"airly":true,"sponsor":{"id":238,"name":"Zielonki","description":"Airly Sensor's sponsor","logo":"https://cdn.airly.eu/logo/Zielonki.jpg","link":null}},{"id":9892,"location":{"latitude":49.999615,"longitude":19.966073},"address":{"country":"Poland","city":"Kraków","street":"Wyżynna","number":"30","displayAddress1":"Kraków","displayAddress2":"Wyżynna"},"elevation":235.34,"airly":true,"sponsor":{"id":556,"name":"Zostań ambasadorem tego czujnika","description":"Airly Sensor is part of action","logo":"https://cdn.airly.eu/logo/Zostaambasadoremtegoczujnika_1568195322715_1084166514.png","link":"https://airly.eu/contact/"}},{"id":7617,"location":{"latitude":50.126232,"longitude":19.954121},"address":{"country":"Poland","city":"Bibice","street":"Tadeusza Kościuszki","number":"1","displayAddress1":"Bibice","displayAddress2":"Tadeusza Kościuszki"},"elevation":257.93,"airly":true,"sponsor":{"id":238,"name":"Zielonki","description":"Airly Sensor's sponsor","logo":"https://cdn.airly.eu/logo/Zielonki.jpg","link":null}},{"id":627,"location":{"latitude":49.996571,"longitude":19.957157},"address":{"country":"Poland","city":"Kraków","street":"Stepowa","number":"8","displayAddress1":"Kraków","displayAddress2":"Stepowa"},"elevation":256.48,"airly":true,"sponsor":{"id":277,"name":"Anonymous SmogFighter","description":"","logo":"https://cdn.airly.eu/logo/Smogfighter.jpg","link":"https://www.facebook.com/airlyeu/"}},{"id":8086,"location":{"latitude":50.078012,"longitude":20.041905},"address":{"country":"Poland","city":"Kraków","street":"Osiedle Słoneczne","number":"12","displayAddress1":"Kraków","displayAddress2":"Osiedle Słoneczne"},"elevation":212.94,"airly":true,"sponsor":{"id":22,"name":"Aviva","description":"Airly Sensor's sponsor","logo":"https://cdn.airly.eu/logo/Aviva_1538146740542_399306786.jpg","link":"https://wiemczymoddycham.pl/"}},{"id":9891,"location":{"latitude":50.020586,"longitude":20.02296},"address":{"country":"Poland","city":"Kraków","street":"Komandora Bohdana Wrońskiego","number":"9","displayAddress1":"Kraków","displayAddress2":"Komandora Bohdana Wrońskiego"},"elevation":199.94,"airly":true,"sponsor":{"id":556,"name":"Zostań ambasadorem tego czujnika","description":"Airly Sensor is part of action","logo":"https://cdn.airly.eu/logo/Zostaambasadoremtegoczujnika_1568195322715_1084166514.png","link":"https://airly.eu/contact/"}},{"id":1070,"location":{"latitude":50.002872,"longitude":19.891985},"address":{"country":"Poland","city":"Kraków","street":"Profesora Geremka","number":"26","displayAddress1":"Kraków","displayAddress2":"Profesora Geremka"},"elevation":245.78,"airly":true,"sponsor":{"id":249,"name":"Airly Ambassador","description":"","logo":"https://cdn.airly.eu/logo/Ambasador_Airly.jpg","link":"https://www.facebook.com/airlyeu/"}},{"id":8979,"location":{"latitude":50.126026,"longitude":19.905455},"address":{"country":"Poland","city":"Pękowice","street":"Pod Fortem","number":"6","displayAddress1":"Pękowice","displayAddress2":"Pod Fortem"},"elevation":254.39,"airly":true,"sponsor":{"id":238,"name":"Zielonki","description":"Airly Sensor's sponsor","logo":"https://cdn.airly.eu/logo/Zielonki.jpg","link":null}},{"id":238,"location":{"latitude":50.110831,"longitude":20.015155},"address":{"country":"Poland","city":"Batowice","street":"Karola Wojtyły","number":"106","displayAddress1":"Batowice","displayAddress2":"Karola Wojtyły"},"elevation":249.81,"airly":true,"sponsor":{"id":238,"name":"Zielonki","description":"Airly Sensor's sponsor","logo":"https://cdn.airly.eu/logo/Zielonki.jpg","link":null}},{"id":9912,"location":{"latitude":49.99848,"longitude":19.902375},"address":{"country":"Poland","city":"Kraków","street":"Mieczykowa","number":"6","displayAddress1":"Kraków","displayAddress2":"Mieczykowa"},"elevation":243.07,"airly":true,"sponsor":{"id":556,"name":"Zostań ambasadorem tego czujnika","description":"Airly Sensor is part of action","logo":"https://cdn.airly.eu/logo/Zostaambasadoremtegoczujnika_1568195322715_1084166514.png","link":"https://airly.eu/contact/"}},{"id":6885,"location":{"latitude":49.993368,"longitude":19.946925},"address":{"country":"Poland","city":"Kraków","street":"Myślenicka","number":"112","displayAddress1":"Kraków","displayAddress2":"Myślenicka"},"elevation":253.36,"airly":true,"sponsor":{"id":325,"name":"Budżet Obywatelski Miasta Krakowa edycja 2017","description":"Airly Sensor's sponsor","logo":"https://cdn.airly.eu/logo/BudetObywatelskiMiastaKrakowaedycja_1534774335503_210307458.jpg","link":null}},{"id":9077,"location":{"latitude":50.128409,"longitude":19.973662},"address":{"country":"Poland","city":"Węgrzce","street":"C21","number":"1","displayAddress1":"Węgrzce","displayAddress2":"C21"},"elevation":297.5,"airly":true,"sponsor":{"id":238,"name":"Zielonki","description":"Airly Sensor's sponsor","logo":"https://cdn.airly.eu/logo/Zielonki.jpg","link":null}},{"id":245,"location":{"latitude":50.131359,"longitude":19.951436},"address":{"country":"Poland","city":"Bibice","street":"Lipowa","number":"39","displayAddress1":"Bibice","displayAddress2":"Lipowa"},"elevation":266.2,"airly":true,"sponsor":{"id":238,"name":"Zielonki","description":"Airly Sensor's sponsor","logo":"https://cdn.airly.eu/logo/Zielonki.jpg","link":null}},{"id":233,"location":{"latitude":50.123593,"longitude":19.994082},"address":{"country":"Poland","city":"Bosutów","street":"Krakowska","number":"20","displayAddress1":"Bosutów","displayAddress2":"Krakowska"},"elevation":257.97,"airly":true,"sponsor":{"id":238,"name":"Zielonki","description":"Airly Sensor's sponsor","logo":"https://cdn.airly.eu/logo/Zielonki.jpg","link":null}},{"id":7758,"location":{"latitude":49.991442,"longitude":19.936792},"address":{"country":"Poland","city":"Kraków","street":"Lusińska","number":"17","displayAddress1":"Kraków","displayAddress2":"Lusińska"},"elevation":241.24,"airly":false,"sponsor":{"id":11,"name":"State Environmental Monitoring Station","description":"","logo":"https://cdn.airly.eu/logo/GIOs.jpg","link":null}},{"id":247,"location":{"latitude":50.127424,"longitude":19.898802},"address":{"country":"Poland","city":"Pękowice","street":"Ojcowska","number":"17","displayAddress1":"Pękowice","displayAddress2":"Ojcowska"},"elevation":275.66,"airly":true,"sponsor":{"id":238,"name":"Zielonki","description":"Airly Sensor's sponsor","logo":"https://cdn.airly.eu/logo/Zielonki.jpg","link":null}},{"id":605,"location":{"latitude":50.055737,"longitude":19.830334},"address":{"country":"Poland","city":"Kraków","street":"Orla","number":"150","displayAddress1":"Kraków","displayAddress2":"Orla"},"elevation":282.04,"airly":true,"sponsor":{"id":274,"name":"Anonymous SmogFighter","description":"","logo":"https://cdn.airly.eu/logo/Smogfighter.jpg","link":"https://www.facebook.com/airlyeu/"}},{"id":6070,"location":{"latitude":50.118809,"longitude":20.009399},"address":{"country":"Poland","city":"Dziekanowice","street":"Dziekanowicka","number":null,"displayAddress1":"Dziekanowice","displayAddress2":"Dziekanowicka"},"elevation":270.61,"airly":true,"sponsor":{"id":238,"name":"Zielonki","description":"Airly Sensor's sponsor","logo":"https://cdn.airly.eu/logo/Zielonki.jpg","link":null}},{"id":19,"location":{"latitude":50.069308,"longitude":20.053492},"address":{"country":"Poland","city":"Kraków","street":"Bulwarowa","number":"30","displayAddress1":"Kraków","displayAddress2":"Bulwarowa"},"elevation":203.87,"airly":false,"sponsor":{"id":11,"name":"State Environmental Monitoring Station","description":"","logo":"https://cdn.airly.eu/logo/GIOs.jpg","link":null}},{"id":5625,"location":{"latitude":49.991052,"longitude":19.913596},"address":{"country":"Poland","city":"Kraków","street":"Kłuszyńska","number":"46","displayAddress1":"Kraków","displayAddress2":"Kłuszyńska"},"elevation":234.64,"airly":true,"sponsor":{"id":325,"name":"Budżet Obywatelski Miasta Krakowa edycja 2017","description":"Airly Sensor's sponsor","logo":"https://cdn.airly.eu/logo/BudetObywatelskiMiastaKrakowaedycja_1534774335503_210307458.jpg","link":null}},{"id":7844,"location":{"latitude":50.05426,"longitude":19.826462},"address":{"country":"Poland","city":"Kraków","street":null,"number":null,"displayAddress1":"Kraków","displayAddress2":"Orla, OA UJ"},"elevation":291.38,"airly":true,"sponsor":{"id":270,"name":"Anonymous SmogFighter","description":"","logo":"https://cdn.airly.eu/logo/Smogfighter.jpg","link":"https://www.facebook.com/airlyeu/"}},{"id":241,"location":{"latitude":50.133024,"longitude":19.973249},"address":{"country":"Poland","city":"Bosutów","street":"Jodłowa","number":"8","displayAddress1":"Bosutów","displayAddress2":"Jodłowa"},"elevation":279.92,"airly":true,"sponsor":{"id":238,"name":"Zielonki","description":"Airly Sensor's sponsor","logo":"https://cdn.airly.eu/logo/Zielonki.jpg","link":null}},{"id":9913,"location":{"latitude":50.020756,"longitude":19.844076},"address":{"country":"Poland","city":"Kraków","street":"Dąbrowa","number":"30A","displayAddress1":"Kraków","displayAddress2":"Dąbrowa"},"elevation":205.85,"airly":true,"sponsor":{"id":556,"name":"Zostań ambasadorem tego czujnika","description":"Airly Sensor is part of action","logo":"https://cdn.airly.eu/logo/Zostaambasadoremtegoczujnika_1568195322715_1084166514.png","link":"https://airly.eu/contact/"}},{"id":549,"location":{"latitude":50.123853,"longitude":19.874604},"address":{"country":"Poland","city":"Modlnica","street":"Polna","number":"42","displayAddress1":"Modlnica","displayAddress2":"Polna"},"elevation":271.78,"airly":true,"sponsor":{"id":225,"name":"Wielka Wieś","description":"Airly Sensor's sponsor","logo":"https://cdn.airly.eu/logo/Wielka_Wies.jpg","link":null}},{"id":6147,"location":{"latitude":50.133579,"longitude":19.905573},"address":{"country":"Poland","city":"Zielonki","street":"Trojanowicka","number":"32","displayAddress1":"Zielonki","displayAddress2":"Trojanowicka"},"elevation":242.98,"airly":true,"sponsor":{"id":238,"name":"Zielonki","description":"Airly Sensor's sponsor","logo":"https://cdn.airly.eu/logo/Zielonki.jpg","link":null}},{"id":9923,"location":{"latitude":50.042476,"longitude":19.826993},"address":{"country":"Poland","city":"Kraków","street":"Dworna","number":"46","displayAddress1":"Kraków","displayAddress2":"Dworna"},"elevation":228.21,"airly":true,"sponsor":{"id":556,"name":"Zostań ambasadorem tego czujnika","description":"Airly Sensor is part of action","logo":"https://cdn.airly.eu/logo/Zostaambasadoremtegoczujnika_1568195322715_1084166514.png","link":"https://airly.eu/contact/"}},{"id":493,"location":{"latitude":50.099709,"longitude":19.837011},"address":{"country":"Poland","city":"Rząska","street":"Krakowska","number":"122","displayAddress1":"Rząska","displayAddress2":"Krakowska"},"elevation":251.92,"airly":true,"sponsor":{"id":229,"name":"Zabierzów","description":"Airly Sensor's sponsor","logo":"https://cdn.airly.eu/logo/Zabierzow.jpg","link":null}},{"id":9918,"location":{"latitude":50.083454,"longitude":20.057153},"address":{"country":"Poland","city":"Kraków","street":"Wąwozowa","number":"11J","displayAddress1":"Kraków","displayAddress2":"Wąwozowa"},"elevation":208.16,"airly":true,"sponsor":{"id":556,"name":"Zostań ambasadorem tego czujnika","description":"Airly Sensor is part of action","logo":"https://cdn.airly.eu/logo/Zostaambasadoremtegoczujnika_1568195322715_1084166514.png","link":"https://airly.eu/contact/"}},{"id":7683,"location":{"latitude":50.139077,"longitude":19.926778},"address":{"country":"Poland","city":"Garlica Murowana","street":null,"number":null,"displayAddress1":"Garlica Murowana","displayAddress2":null},"elevation":255.72,"airly":true,"sponsor":{"id":238,"name":"Zielonki","description":"Airly Sensor's sponsor","logo":"https://cdn.airly.eu/logo/Zielonki.jpg","link":null}},{"id":5709,"location":{"latitude":50.118934,"longitude":19.855883},"address":{"country":"Poland","city":"Modlniczka","street":"świętej Faustyny","number":"10","displayAddress1":"Modlniczka","displayAddress2":"świętej Faustyny"},"elevation":251.32,"airly":true,"sponsor":{"id":225,"name":"Wielka Wieś","description":"Airly Sensor's sponsor","logo":"https://cdn.airly.eu/logo/Wielka_Wies.jpg","link":null}},{"id":10594,"location":{"latitude":50.108296,"longitude":19.83855},"address":{"country":"Poland","city":"Modlniczka","street":"Kasztanowa","number":"14","displayAddress1":"Modlniczka","displayAddress2":"Kasztanowa"},"elevation":231.14,"airly":true,"sponsor":{"id":195,"name":"SRGZ","description":"Airly Sensor's sponsor","logo":"https://cdn.airly.eu/logo/SRGZ.jpg","link":null}},{"id":7592,"location":{"latitude":50.140354,"longitude":19.911984},"address":{"country":"Poland","city":"Trojanowice","street":"Krakowska","number":"118","displayAddress1":"Trojanowice","displayAddress2":"Krakowska"},"elevation":277.26,"airly":true,"sponsor":{"id":238,"name":"Zielonki","description":"Airly Sensor's sponsor","logo":"https://cdn.airly.eu/logo/Zielonki.jpg","link":null}},{"id":9909,"location":{"latitude":50.107347,"longitude":20.045773},"address":{"country":"Poland","city":"Kraków","street":"Ulica Morcinka","number":"23","displayAddress1":"Kraków","displayAddress2":"Ulica Morcinka"},"elevation":222.21,"airly":true,"sponsor":{"id":556,"name":"Zostań ambasadorem tego czujnika","description":"Airly Sensor is part of action","logo":"https://cdn.airly.eu/logo/Zostaambasadoremtegoczujnika_1568195322715_1084166514.png","link":"https://airly.eu/contact/"}},{"id":662,"location":{"latitude":50.127182,"longitude":19.864904},"address":{"country":"Poland","city":"Modlnica","street":"Źródlana","number":"16","displayAddress1":"Modlnica","displayAddress2":"Źródlana"},"elevation":277.23,"airly":true,"sponsor":{"id":275,"name":"Anonymous SmogFighter","description":"","logo":"https://cdn.airly.eu/logo/Smogfighter.jpg","link":"https://www.facebook.com/airlyeu/"}},{"id":6068,"location":{"latitude":50.117668,"longitude":20.033667},"address":{"country":"Poland","city":"Raciborowice","street":null,"number":null,"displayAddress1":"Raciborowice","displayAddress2":null},"elevation":235.45,"airly":true,"sponsor":{"id":127,"name":"Michałowice","description":"Airly Sensor's sponsor","logo":"https://cdn.airly.eu/logo/Michalowice.jpg","link":null}},{"id":347,"location":{"latitude":50.140827,"longitude":19.97341},"address":{"country":"Poland","city":"Michałowice","street":"Legionowa","number":"26","displayAddress1":"Michałowice","displayAddress2":"Legionowa"},"elevation":306.98,"airly":true,"sponsor":{"id":127,"name":"Michałowice","description":"Airly Sensor's sponsor","logo":"https://cdn.airly.eu/logo/Michalowice.jpg","link":null}},{"id":8017,"location":{"latitude":50.019761,"longitude":20.05283},"address":{"country":"Poland","city":"Kraków","street":"Opalowa","number":"6","displayAddress1":"Kraków","displayAddress2":"Opalowa"},"elevation":199.09,"airly":true,"sponsor":{"id":22,"name":"Aviva","description":"Airly Sensor's sponsor","logo":"https://cdn.airly.eu/logo/Aviva_1538146740542_399306786.jpg","link":"https://wiemczymoddycham.pl/"}},{"id":329,"location":{"latitude":50.1315,"longitude":20.014326},"address":{"country":"Poland","city":"Książniczki","street":null,"number":null,"displayAddress1":"Książniczki","displayAddress2":null},"elevation":227.36,"airly":true,"sponsor":{"id":127,"name":"Michałowice","description":"Airly Sensor's sponsor","logo":"https://cdn.airly.eu/logo/Michalowice.jpg","link":null}},{"id":6387,"location":{"latitude":50.143883,"longitude":19.909424},"address":{"country":"Poland","city":"Trojanowice","street":"Widokowa","number":"58","displayAddress1":"Trojanowice","displayAddress2":"Widokowa"},"elevation":307.05,"airly":true,"sponsor":{"id":238,"name":"Zielonki","description":"Airly Sensor's sponsor","logo":"https://cdn.airly.eu/logo/Zielonki.jpg","link":null}},{"id":7915,"location":{"latitude":50.129762,"longitude":19.862389},"address":{"country":"Poland","city":"Modlnica","street":"Sportowa","number":"2","displayAddress1":"Modlnica","displayAddress2":"Sportowa"},"elevation":275.57,"airly":true,"sponsor":{"id":225,"name":"Wielka Wieś","description":"Airly Sensor's sponsor","logo":"https://cdn.airly.eu/logo/Wielka_Wies.jpg","link":null}},{"id":7554,"location":{"latitude":50.145735,"longitude":19.923545},"address":{"country":"Poland","city":"Garlica Duchowna","street":null,"number":null,"displayAddress1":"Garlica Duchowna","displayAddress2":null},"elevation":261.82,"airly":true,"sponsor":{"id":238,"name":"Zielonki","description":"Airly Sensor's sponsor","logo":"https://cdn.airly.eu/logo/Zielonki.jpg","link":null}},{"id":10595,"location":{"latitude":50.139211,"longitude":19.886935},"address":{"country":"Poland","city":"Giebułtów","street":"Osiedle Szkolne","number":"8","displayAddress1":"Giebułtów","displayAddress2":"Osiedle Szkolne"},"elevation":293.67,"airly":true,"sponsor":{"id":195,"name":"SRGZ","description":"Airly Sensor's sponsor","logo":"https://cdn.airly.eu/logo/SRGZ.jpg","link":null}},{"id":512,"location":{"latitude":50.140965,"longitude":19.989164},"address":{"country":"Poland","city":"Młodziejowice","street":null,"number":null,"displayAddress1":"Młodziejowice","displayAddress2":null},"elevation":245.54,"airly":true,"sponsor":{"id":127,"name":"Michałowice","description":"Airly Sensor's sponsor","logo":"https://cdn.airly.eu/logo/Michalowice.jpg","link":null}},{"id":246,"location":{"latitude":50.148238,"longitude":19.95973},"address":{"country":"Poland","city":"Michałowice","street":"Ulica Graniczna","number":"111","displayAddress1":"Michałowice","displayAddress2":"Graniczna"},"elevation":311.71,"airly":true,"sponsor":{"id":238,"name":"Zielonki","description":"Airly Sensor's sponsor","logo":"https://cdn.airly.eu/logo/Zielonki.jpg","link":null}},{"id":236,"location":{"latitude":50.149958,"longitude":19.933871},"address":{"country":"Poland","city":"Wola Zachariaszowska","street":"Świętego Floriana","number":"19","displayAddress1":"Wola Zachariaszowska","displayAddress2":"Ogrodowa"},"elevation":306.29,"airly":true,"sponsor":{"id":238,"name":"Zielonki","description":"Airly Sensor's sponsor","logo":"https://cdn.airly.eu/logo/Zielonki.jpg","link":null}},{"id":7068,"location":{"latitude":50.1502,"longitude":19.9326},"address":{"country":"Poland","city":"Wola Zachariaszowska","street":null,"number":null,"displayAddress1":"Wola Zachariaszowska","displayAddress2":null},"elevation":303.36,"airly":true,"sponsor":{"id":195,"name":"SRGZ","description":"Airly Sensor's sponsor","logo":"https://cdn.airly.eu/logo/SRGZ.jpg","link":null}},{"id":8152,"location":{"latitude":50.143699,"longitude":19.879804},"address":{"country":"Poland","city":"Giebułtów","street":"Orlich Gniazd","number":"30","displayAddress1":"Giebułtów","displayAddress2":"Orlich Gniazd"},"elevation":316.25,"airly":true,"sponsor":{"id":225,"name":"Wielka Wieś","description":"Airly Sensor's sponsor","logo":"https://cdn.airly.eu/logo/Wielka_Wies.jpg","link":null}},{"id":491,"location":{"latitude":50.093582,"longitude":19.808323},"address":{"country":"Poland","city":"Szczyglice","street":"Sportowa","number":"38","displayAddress1":"Szczyglice","displayAddress2":"Sportowa"},"elevation":219.85,"airly":true,"sponsor":{"id":229,"name":"Zabierzów","description":"Airly Sensor's sponsor","logo":"https://cdn.airly.eu/logo/Zabierzow.jpg","link":null}},{"id":7467,"location":{"latitude":50.152096,"longitude":19.919811},"address":{"country":"Poland","city":"Garliczka","street":null,"number":null,"displayAddress1":"Garliczka","displayAddress2":null},"elevation":274.46,"airly":true,"sponsor":{"id":238,"name":"Zielonki","description":"Airly Sensor's sponsor","logo":"https://cdn.airly.eu/logo/Zielonki.jpg","link":null}},{"id":7768,"location":{"latitude":49.970348,"longitude":19.944985},"address":{"country":"Poland","city":"Wrząsowice","street":null,"number":null,"displayAddress1":"Wrząsowice","displayAddress2":null},"elevation":232.77,"airly":true,"sponsor":{"id":206,"name":"Świątniki Górne","description":"Airly Sensor's sponsor","logo":"https://cdn.airly.eu/logo/Swiatniki_Gorne.jpg","link":null}},{"id":7917,"location":{"latitude":49.9909,"longitude":20.03226},"address":{"country":"Poland","city":"Wieliczka","street":"Krzyszkowicka","number":"18A","displayAddress1":"Wieliczka","displayAddress2":"Krzyszkowicka"},"elevation":243.62,"airly":true,"sponsor":{"id":224,"name":"Wieliczka","description":"Airly Sensor's sponsor","logo":"https://cdn.airly.eu/logo/Wieliczka.jpg","link":null}},{"id":10051,"location":{"latitude":50.150282,"longitude":19.893212},"address":{"country":"Poland","city":"Januszowice","street":null,"number":null,"displayAddress1":"Januszowice","displayAddress2":null},"elevation":261.88,"airly":true,"sponsor":{"id":238,"name":"Zielonki","description":"Airly Sensor's sponsor","logo":"https://cdn.airly.eu/logo/Zielonki.jpg","link":null}},{"id":1033,"location":{"latitude":50.141017,"longitude":19.863014},"address":{"country":"Poland","city":"Szyce","street":"Plac Wspólnoty","number":"2","displayAddress1":"Szyce","displayAddress2":"Plac Wspólnoty"},"elevation":316.2,"airly":true,"sponsor":{"id":225,"name":"Wielka Wieś","description":"Airly Sensor's sponsor","logo":"https://cdn.airly.eu/logo/Wielka_Wies.jpg","link":null}},{"id":7584,"location":{"latitude":49.972103,"longitude":19.898235},"address":{"country":"Poland","city":"Libertów","street":"Jana Pawła II","number":"43","displayAddress1":"Libertów","displayAddress2":"Jana Pawła II"},"elevation":308.82,"airly":true,"sponsor":{"id":133,"name":"Mogilany","description":"Airly Sensor's sponsor","logo":"https://cdn.airly.eu/logo/Mogilany.jpg","link":null}},{"id":7385,"location":{"latitude":49.969677,"longitude":19.980179},"address":{"country":"Poland","city":"Golkowice","street":null,"number":null,"displayAddress1":"Golkowice","displayAddress2":null},"elevation":281.69,"airly":true,"sponsor":{"id":224,"name":"Wieliczka","description":"Airly Sensor's sponsor","logo":"https://cdn.airly.eu/logo/Wieliczka.jpg","link":null}},{"id":541,"location":{"latitude":50.134081,"longitude":19.8415},"address":{"country":"Poland","city":"Tomaszowice","street":"Krakowska","number":"85","displayAddress1":"Tomaszowice","displayAddress2":"Krakowska"},"elevation":294.6,"airly":true,"sponsor":{"id":225,"name":"Wielka Wieś","description":"Airly Sensor's sponsor","logo":"https://cdn.airly.eu/logo/Wielka_Wies.jpg","link":null}},{"id":397,"location":{"latitude":50.124599,"longitude":19.822081},"address":{"country":"Poland","city":"Brzezie","street":"Narodowa","number":"37","displayAddress1":"Brzezie","displayAddress2":"Narodowa"},"elevation":230.3,"airly":true,"sponsor":{"id":229,"name":"Zabierzów","description":"Airly Sensor's sponsor","logo":"https://cdn.airly.eu/logo/Zabierzow.jpg","link":null}},{"id":353,"location":{"latitude":50.137146,"longitude":20.041231},"address":{"country":"Poland","city":"Raciborowice","street":null,"number":null,"displayAddress1":"Raciborowice","displayAddress2":null},"elevation":285.06,"airly":true,"sponsor":{"id":127,"name":"Michałowice","description":"Airly Sensor's sponsor","logo":"https://cdn.airly.eu/logo/Michalowice.jpg","link":null}},{"id":5649,"location":{"latitude":50.157944,"longitude":19.979183},"address":{"country":"Poland","city":"Michałowice","street":"pl. Józefa Piłsudskiego","number":"1","displayAddress1":"Michałowice","displayAddress2":"pl. Józefa Piłsudskiego"},"elevation":260.39,"airly":true,"sponsor":{"id":127,"name":"Michałowice","description":"Airly Sensor's sponsor","logo":"https://cdn.airly.eu/logo/Michalowice.jpg","link":null}},{"id":423,"location":{"latitude":50.006641,"longitude":20.069019},"address":{"country":"Poland","city":"Czarnochowice","street":null,"number":null,"displayAddress1":"Czarnochowice","displayAddress2":null},"elevation":220.04,"airly":true,"sponsor":{"id":241,"name":"Airly Ambassador","description":"","logo":"https://cdn.airly.eu/logo/Ambasador_Airly.jpg","link":"https://www.facebook.com/airlyeu/"}},{"id":2274,"location":{"latitude":50.086516,"longitude":19.791139},"address":{"country":"Poland","city":"Balice","street":"Radziwiłłów","number":"1","displayAddress1":"Balice","displayAddress2":"Radziwiłłów"},"elevation":242.01,"airly":true,"sponsor":{"id":229,"name":"Zabierzów","description":"Airly Sensor's sponsor","logo":"https://cdn.airly.eu/logo/Zabierzow.jpg","link":null}},{"id":354,"location":{"latitude":50.145447,"longitude":20.027565},"address":{"country":"Poland","city":"Zdzięsławice","street":null,"number":null,"displayAddress1":"Zdzięsławice","displayAddress2":null},"elevation":264.02,"airly":true,"sponsor":{"id":127,"name":"Michałowice","description":"Airly Sensor's sponsor","logo":"https://cdn.airly.eu/logo/Michalowice.jpg","link":null}},{"id":301,"location":{"latitude":50.162285,"longitude":19.946915},"address":{"country":"Poland","city":"Michałowice","street":"Leśna","number":"113","displayAddress1":"Michałowice","displayAddress2":"Leśna"},"elevation":340.11,"airly":true,"sponsor":{"id":127,"name":"Michałowice","description":"Airly Sensor's sponsor","logo":"https://cdn.airly.eu/logo/Michalowice.jpg","link":null}},{"id":5759,"location":{"latitude":49.961026,"longitude":19.942816},"address":{"country":"Poland","city":"Wrząsowice","street":null,"number":null,"displayAddress1":"Wrząsowice","displayAddress2":null},"elevation":306.25,"airly":true,"sponsor":{"id":206,"name":"Świątniki Górne","description":"Airly Sensor's sponsor","logo":"https://cdn.airly.eu/logo/Swiatniki_Gorne.jpg","link":null}},{"id":642,"location":{"latitude":50.134399,"longitude":19.830833},"address":{"country":"Poland","city":"Tomaszowice","street":"Ujazdowska","number":"49","displayAddress1":"Tomaszowice","displayAddress2":"Ujazdowska"},"elevation":266.37,"airly":true,"sponsor":{"id":281,"name":"Anonymous SmogFighter","description":"","logo":"https://cdn.airly.eu/logo/Smogfighter.jpg","link":"https://www.facebook.com/airlyeu/"}},{"id":2467,"location":{"latitude":49.970136,"longitude":20.012222},"address":{"country":"Poland","city":"Sygneczów","street":null,"number":null,"displayAddress1":"Sygneczów","displayAddress2":null},"elevation":347.51,"airly":true,"sponsor":{"id":224,"name":"Wieliczka","description":"Airly Sensor's sponsor","logo":"https://cdn.airly.eu/logo/Wieliczka.jpg","link":null}},{"id":1092,"location":{"latitude":50.156845,"longitude":19.878487},"address":{"country":"Poland","city":"Januszowice","street":"Młyńska","number":null,"displayAddress1":"Januszowice","displayAddress2":"Młyńska"},"elevation":275.82,"airly":true,"sponsor":{"id":238,"name":"Zielonki","description":"Airly Sensor's sponsor","logo":"https://cdn.airly.eu/logo/Zielonki.jpg","link":null}},{"id":9922,"location":{"latitude":50.048699,"longitude":20.101569},"address":{"country":"Poland","city":"Kraków","street":"Dymarek","number":"11","displayAddress1":"Kraków","displayAddress2":"Dymarek"},"elevation":194.09,"airly":true,"sponsor":{"id":556,"name":"Zostań ambasadorem tego czujnika","description":"Airly Sensor is part of action","logo":"https://cdn.airly.eu/logo/Zostaambasadoremtegoczujnika_1568195322715_1084166514.png","link":"https://airly.eu/contact/"}},{"id":2123,"location":{"latitude":50.116436,"longitude":19.801319},"address":{"country":"Poland","city":"Zabierzów","street":"Wapienna","number":null,"displayAddress1":"Zabierzów","displayAddress2":"Wapienna"},"elevation":232.93,"airly":true,"sponsor":{"id":229,"name":"Zabierzów","description":"Airly Sensor's sponsor","logo":"https://cdn.airly.eu/logo/Zabierzow.jpg","link":null}},{"id":7656,"location":{"latitude":49.960396,"longitude":19.899989},"address":{"country":"Poland","city":"Gaj","street":"Parkowa","number":"73","displayAddress1":"Gaj","displayAddress2":"Parkowa"},"elevation":284.71,"airly":true,"sponsor":{"id":133,"name":"Mogilany","description":"Airly Sensor's sponsor","logo":"https://cdn.airly.eu/logo/Mogilany.jpg","link":null}},{"id":9996,"location":{"latitude":50.116028,"longitude":19.800639},"address":{"country":"Poland","city":"Zabierzów","street":"Kolejowa","number":"26","displayAddress1":"Zabierzów","displayAddress2":"Kolejowa"},"elevation":235.0,"airly":false,"sponsor":{"id":11,"name":"State Environmental Monitoring Station","description":"","logo":"https://cdn.airly.eu/logo/GIOs.jpg","link":null}},{"id":335,"location":{"latitude":50.160854,"longitude":19.99761},"address":{"country":"Poland","city":"Masłomiąca","street":"Długa","number":"41","displayAddress1":"Masłomiąca","displayAddress2":"Długa"},"elevation":249.72,"airly":true,"sponsor":{"id":127,"name":"Michałowice","description":"Airly Sensor's sponsor","logo":"https://cdn.airly.eu/logo/Michalowice.jpg","link":null}},{"id":7386,"location":{"latitude":50.036109,"longitude":20.100615},"address":{"country":"Poland","city":"Brzegi","street":null,"number":null,"displayAddress1":"Brzegi","displayAddress2":null},"elevation":192.99,"airly":true,"sponsor":{"id":224,"name":"Wieliczka","description":"Airly Sensor's sponsor","logo":"https://cdn.airly.eu/logo/Wieliczka.jpg","link":null}},{"id":7427,"location":{"latitude":50.156176,"longitude":19.866003},"address":{"country":"Poland","city":"Prądnik Korzkiewski","street":"Nad Hamernią","number":"4","displayAddress1":"Prądnik Korzkiewski","displayAddress2":"Nad Hamernią"},"elevation":299.43,"airly":true,"sponsor":{"id":8,"name":"PolskaOddycha","description":"Airly Sensor is part of action","logo":"https://cdn.airly.eu/logo/PolskaOddycha.jpg","link":"https://www.facebook.com/airlyeu/"}},{"id":7673,"location":{"latitude":50.009926,"longitude":20.084469},"address":{"country":"Poland","city":"Śledziejowice","street":null,"number":"203","displayAddress1":"Śledziejowice","displayAddress2":null},"elevation":229.88,"airly":true,"sponsor":{"id":22,"name":"Aviva","description":"Airly Sensor's sponsor","logo":"https://cdn.airly.eu/logo/Aviva_1538146740542_399306786.jpg","link":"https://wiemczymoddycham.pl/"}},{"id":8983,"location":{"latitude":50.170006,"longitude":19.936647},"address":{"country":"Poland","city":"Górna Wieś","street":null,"number":null,"displayAddress1":"Górna Wieś","displayAddress2":null},"elevation":353.61,"airly":true,"sponsor":{"id":127,"name":"Michałowice","description":"Airly Sensor's sponsor","logo":"https://cdn.airly.eu/logo/Michalowice.jpg","link":null}},{"id":6076,"location":{"latitude":49.985546,"longitude":20.059961},"address":{"country":"Poland","city":"Wieliczka","street":"Stanisława Moniuszki","number":"1","displayAddress1":"Wieliczka","displayAddress2":"Stanisława Moniuszki"},"elevation":240.53,"airly":true,"sponsor":{"id":224,"name":"Wieliczka","description":"Airly Sensor's sponsor","logo":"https://cdn.airly.eu/logo/Wieliczka.jpg","link":null}},{"id":811,"location":{"latitude":50.056786,"longitude":19.772648},"address":{"country":"Poland","city":"Cholerzyn","street":null,"number":null,"displayAddress1":"Cholerzyn","displayAddress2":null},"elevation":219.47,"airly":true,"sponsor":{"id":117,"name":"Liszki","description":"Airly Sensor's sponsor","logo":"https://cdn.airly.eu/logo/Liszki.jpg","link":null}},{"id":482,"location":{"latitude":50.137611,"longitude":19.818424},"address":{"country":"Poland","city":"Ujazd","street":"Świerkowa","number":"80","displayAddress1":"Ujazd","displayAddress2":"Świerkowa"},"elevation":260.19,"airly":true,"sponsor":{"id":229,"name":"Zabierzów","description":"Airly Sensor's sponsor","logo":"https://cdn.airly.eu/logo/Zabierzow.jpg","link":null}},{"id":7685,"location":{"latitude":50.155872,"longitude":20.02762},"address":{"country":"Poland","city":"Więcławice Stare","street":"Więcławice","number":"49","displayAddress1":"Więcławice Stare","displayAddress2":"Więcławice"},"elevation":286.45,"airly":true,"sponsor":{"id":127,"name":"Michałowice","description":"Airly Sensor's sponsor","logo":"https://cdn.airly.eu/logo/Michalowice.jpg","link":null}},{"id":7383,"location":{"latitude":50.013498,"longitude":20.093184},"address":{"country":"Poland","city":"Kokotów","street":null,"number":null,"displayAddress1":"Kokotów","displayAddress2":null},"elevation":214.51,"airly":true,"sponsor":{"id":224,"name":"Wieliczka","description":"Airly Sensor's sponsor","logo":"https://cdn.airly.eu/logo/Wieliczka.jpg","link":null}},{"id":2849,"location":{"latitude":49.971877,"longitude":20.040339},"address":{"country":"Poland","city":"Siercza","street":null,"number":null,"displayAddress1":"Siercza","displayAddress2":null},"elevation":352.48,"airly":true,"sponsor":{"id":22,"name":"Aviva","description":"Airly Sensor's sponsor","logo":"https://cdn.airly.eu/logo/Aviva_1538146740542_399306786.jpg","link":"https://wiemczymoddycham.pl/"}},{"id":320,"location":{"latitude":50.151409,"longitude":20.044298},"address":{"country":"Poland","city":"Pielgrzymowice","street":null,"number":null,"displayAddress1":"Pielgrzymowice","displayAddress2":null},"elevation":275.6,"airly":true,"sponsor":{"id":127,"name":"Michałowice","description":"Airly Sensor's sponsor","logo":"https://cdn.airly.eu/logo/Michalowice.jpg","link":null}},{"id":6643,"location":{"latitude":50.17268,"longitude":19.91511},"address":{"country":"Poland","city":"Owczary","street":null,"number":null,"displayAddress1":"Owczary","displayAddress2":null},"elevation":337.94,"airly":true,"sponsor":{"id":195,"name":"SRGZ","description":"Airly Sensor's sponsor","logo":"https://cdn.airly.eu/logo/SRGZ.jpg","link":null}},{"id":304,"location":{"latitude":49.98436,"longitude":20.066578},"address":{"country":"Poland","city":"Wieliczka","street":"Słowackiego","number":"26","displayAddress1":"Wieliczka","displayAddress2":"Słowackiego"},"elevation":251.23,"airly":true,"sponsor":{"id":224,"name":"Wieliczka","description":"Airly Sensor's sponsor","logo":"https://cdn.airly.eu/logo/Wieliczka.jpg","link":null}},{"id":244,"location":{"latitude":50.173598,"longitude":19.914051},"address":{"country":"Poland","city":"Owczary","street":null,"number":null,"displayAddress1":"Owczary","displayAddress2":null},"elevation":332.63,"airly":true,"sponsor":{"id":238,"name":"Zielonki","description":"Airly Sensor's sponsor","logo":"https://cdn.airly.eu/logo/Zielonki.jpg","link":null}},{"id":8981,"location":{"latitude":50.166246,"longitude":19.872357},"address":{"country":"Poland","city":"Grębynice","street":"Orlich Gniazd","number":"24","displayAddress1":"Grębynice","displayAddress2":"Orlich Gniazd"},"elevation":349.91,"airly":true,"sponsor":{"id":238,"name":"Zielonki","description":"Airly Sensor's sponsor","logo":"https://cdn.airly.eu/logo/Zielonki.jpg","link":null}},{"id":323,"location":{"latitude":49.950474,"longitude":19.973186},"address":{"country":"Poland","city":"Ochojno","street":null,"number":null,"displayAddress1":"Ochojno","displayAddress2":null},"elevation":381.18,"airly":true,"sponsor":{"id":206,"name":"Świątniki Górne","description":"Airly Sensor's sponsor","logo":"https://cdn.airly.eu/logo/Swiatniki_Gorne.jpg","link":null}},{"id":492,"location":{"latitude":50.172249,"longitude":19.8985},"address":{"country":"Poland","city":null,"street":"Krakowska","number":"20","displayAddress1":null,"displayAddress2":"Krakowska"},"elevation":372.36,"airly":true,"sponsor":{"id":195,"name":"SRGZ","description":"Airly Sensor's sponsor","logo":"https://cdn.airly.eu/logo/SRGZ.jpg","link":null}},{"id":7055,"location":{"latitude":50.15751,"longitude":19.845108},"address":{"country":"Poland","city":"Wielka Wieś","street":"Szkolna","number":"5","displayAddress1":"Wielka Wieś","displayAddress2":"Szkolna"},"elevation":384.43,"airly":true,"sponsor":{"id":225,"name":"Wielka Wieś","description":"Airly Sensor's sponsor","logo":"https://cdn.airly.eu/logo/Wielka_Wies.jpg","link":null}},{"id":883,"location":{"latitude":50.081104,"longitude":19.764215},"address":{"country":"Poland","city":"Aleksandrowice","street":null,"number":null,"displayAddress1":"Aleksandrowice","displayAddress2":null},"elevation":240.7,"airly":true,"sponsor":{"id":229,"name":"Zabierzów","description":"Airly Sensor's sponsor","logo":"https://cdn.airly.eu/logo/Zabierzow.jpg","link":null}},{"id":9008,"location":{"latitude":49.98194,"longitude":20.070153},"address":{"country":"Poland","city":"Wieliczka","street":null,"number":null,"displayAddress1":"Wieliczka","displayAddress2":"Adama Asnyka"},"elevation":269.62,"airly":true,"sponsor":{"id":224,"name":"Wieliczka","description":"Airly Sensor's sponsor","logo":"https://cdn.airly.eu/logo/Wieliczka.jpg","link":null}},{"id":64,"location":{"latitude":49.971047,"longitude":19.830422},"address":{"country":"Poland","city":"Skawina","street":"Ogrody","number":"6D","displayAddress1":"Skawina","displayAddress2":"Ogrody"},"elevation":227.34,"airly":false,"sponsor":{"id":11,"name":"State Environmental Monitoring Station","description":"","logo":"https://cdn.airly.eu/logo/GIOs.jpg","link":null}},{"id":931,"location":{"latitude":50.096199,"longitude":19.769079},"address":{"country":"Poland","city":"Burów","street":null,"number":null,"displayAddress1":"Burów","displayAddress2":null},"elevation":302.85,"airly":true,"sponsor":{"id":229,"name":"Zabierzów","description":"Airly Sensor's sponsor","logo":"https://cdn.airly.eu/logo/Zabierzow.jpg","link":null}},{"id":2832,"location":{"latitude":50.174309,"longitude":19.987906},"address":{"country":"Poland","city":"Zerwana","street":null,"number":null,"displayAddress1":"Zerwana","displayAddress2":null},"elevation":250.14,"airly":true,"sponsor":{"id":127,"name":"Michałowice","description":"Airly Sensor's sponsor","logo":"https://cdn.airly.eu/logo/Michalowice.jpg","link":null}},{"id":521,"location":{"latitude":50.120655,"longitude":19.78093},"address":{"country":"Poland","city":"Zabierzów","street":"Przy Torze","number":"63","displayAddress1":"Zabierzów","displayAddress2":"Przy Torze"},"elevation":232.68,"airly":true,"sponsor":{"id":242,"name":"Airly Ambassador","description":"","logo":"https://cdn.airly.eu/logo/Ambasador_Airly.jpg","link":"https://www.facebook.com/airlyeu/"}},{"id":327,"location":{"latitude":49.945389,"longitude":19.973122},"address":{"country":"Poland","city":"Rzeszotary","street":null,"number":null,"displayAddress1":"Rzeszotary","displayAddress2":null},"elevation":384.07,"airly":true,"sponsor":{"id":206,"name":"Świątniki Górne","description":"Airly Sensor's sponsor","logo":"https://cdn.airly.eu/logo/Swiatniki_Gorne.jpg","link":null}},{"id":7850,"location":{"latitude":50.015339,"longitude":20.111307},"address":{"country":"Poland","city":"Węgrzce Wielkie","street":null,"number":"518","displayAddress1":"Węgrzce Wielkie","displayAddress2":null},"elevation":202.43,"airly":true,"sponsor":{"id":224,"name":"Wieliczka","description":"Airly Sensor's sponsor","logo":"https://cdn.airly.eu/logo/Wieliczka.jpg","link":null}},{"id":6381,"location":{"latitude":50.03231,"longitude":19.76156},"address":{"country":"Poland","city":"Liszki","street":null,"number":null,"displayAddress1":"Liszki","displayAddress2":null},"elevation":249.22,"airly":true,"sponsor":{"id":117,"name":"Liszki","description":"Airly Sensor's sponsor","logo":"https://cdn.airly.eu/logo/Liszki.jpg","link":null}},{"id":366,"location":{"latitude":50.180222,"longitude":19.970085},"address":{"country":"Poland","city":"Wilczkowice","street":null,"number":null,"displayAddress1":"Wilczkowice","displayAddress2":null},"elevation":277.77,"airly":true,"sponsor":{"id":127,"name":"Michałowice","description":"Airly Sensor's sponsor","logo":"https://cdn.airly.eu/logo/Michalowice.jpg","link":null}},{"id":248,"location":{"latitude":50.174945,"longitude":19.877311},"address":{"country":"Poland","city":"Grębynice","street":null,"number":null,"displayAddress1":"Grębynice","displayAddress2":null},"elevation":330.64,"airly":true,"sponsor":{"id":238,"name":"Zielonki","description":"Airly Sensor's sponsor","logo":"https://cdn.airly.eu/logo/Zielonki.jpg","link":null}},{"id":349,"location":{"latitude":50.165009,"longitude":20.039921},"address":{"country":"Poland","city":"Sieborowice","street":null,"number":null,"displayAddress1":"Sieborowice","displayAddress2":null},"elevation":316.26,"airly":true,"sponsor":{"id":127,"name":"Michałowice","description":"Airly Sensor's sponsor","logo":"https://cdn.airly.eu/logo/Michalowice.jpg","link":null}},{"id":2066,"location":{"latitude":50.100569,"longitude":20.122561},"address":{"country":"Poland","city":"Kraków-Nowa Huta","street":"Jaskrowa","number":"9A","displayAddress1":"Kraków-Nowa Huta","displayAddress2":"Jaskrowa"},"elevation":218.32,"airly":false,"sponsor":{"id":11,"name":"State Environmental Monitoring Station","description":"","logo":"https://cdn.airly.eu/logo/GIOs.jpg","link":null}},{"id":503,"location":{"latitude":50.13258,"longitude":19.784113},"address":{"country":"Poland","city":"Bolechowice","street":"Zielona","number":"245","displayAddress1":"Bolechowice","displayAddress2":"Zielona"},"elevation":247.02,"airly":true,"sponsor":{"id":269,"name":"Anonymous SmogFighter","description":"","logo":"https://cdn.airly.eu/logo/Smogfighter.jpg","link":"https://www.facebook.com/airlyeu/"}},{"id":2827,"location":{"latitude":50.182739,"longitude":19.977823},"address":{"country":"Poland","city":"Wilczkowice","street":null,"number":null,"displayAddress1":"Wilczkowice","displayAddress2":null},"elevation":252.74,"airly":true,"sponsor":{"id":127,"name":"Michałowice","description":"Airly Sensor's sponsor","logo":"https://cdn.airly.eu/logo/Michalowice.jpg","link":null}},{"id":8126,"location":{"latitude":50.185143,"longitude":19.947767},"address":{"country":"Poland","city":"Kozierów","street":null,"number":null,"displayAddress1":"Kozierów","displayAddress2":null},"elevation":359.71,"airly":true,"sponsor":{"id":127,"name":"Michałowice","description":"Airly Sensor's sponsor","logo":"https://cdn.airly.eu/logo/Michalowice.jpg","link":null}},{"id":7012,"location":{"latitude":50.006187,"longitude":19.769005},"address":{"country":"Poland","city":"Rączna","street":null,"number":null,"displayAddress1":"Rączna","displayAddress2":null},"elevation":223.38,"airly":true,"sponsor":{"id":117,"name":"Liszki","description":"Airly Sensor's sponsor","logo":"https://cdn.airly.eu/logo/Liszki.jpg","link":null}},{"id":2707,"location":{"latitude":50.005803,"longitude":20.113285},"address":{"country":"Poland","city":"Mała Wieś","street":null,"number":null,"displayAddress1":"Mała Wieś","displayAddress2":null},"elevation":242.42,"airly":true,"sponsor":{"id":22,"name":"Aviva","description":"Airly Sensor's sponsor","logo":"https://cdn.airly.eu/logo/Aviva_1538146740542_399306786.jpg","link":"https://wiemczymoddycham.pl/"}},{"id":7872,"location":{"latitude":49.942879,"longitude":19.884991},"address":{"country":"Poland","city":"Mogilany","street":"Rynek","number":"2","displayAddress1":"Mogilany","displayAddress2":"Rynek"},"elevation":390.58,"airly":true,"sponsor":{"id":133,"name":"Mogilany","description":"Airly Sensor's sponsor","logo":"https://cdn.airly.eu/logo/Mogilany.jpg","link":null}},{"id":326,"location":{"latitude":49.938755,"longitude":19.973866},"address":{"country":"Poland","city":"Rzeszotary","street":null,"number":null,"displayAddress1":"Rzeszotary","displayAddress2":null},"elevation":350.11,"airly":true,"sponsor":{"id":206,"name":"Świątniki Górne","description":"Airly Sensor's sponsor","logo":"https://cdn.airly.eu/logo/Swiatniki_Gorne.jpg","link":null}},{"id":615,"location":{"latitude":50.15202,"longitude":19.803083},"address":{"country":"Poland","city":"Zelków","street":"Krakowska","number":"225","displayAddress1":"Zelków","displayAddress2":"Krakowska"},"elevation":346.38,"airly":true,"sponsor":{"id":280,"name":"Anonymous SmogFighter","description":"","logo":"https://cdn.airly.eu/logo/Smogfighter.jpg","link":"https://www.facebook.com/airlyeu/"}},{"id":2545,"location":{"latitude":50.116828,"longitude":20.11815},"address":{"country":"Poland","city":"Dojazdów","street":null,"number":null,"displayAddress1":"Dojazdów","displayAddress2":null},"elevation":234.05,"airly":true,"sponsor":{"id":63,"name":"Gmina Kocmyrzów-Luborzyca","description":"Airly Sensor's sponsor","logo":"https://cdn.airly.eu/logo/Gmina_Kocmyrzow-Luborzyca.jpg","link":null}},{"id":620,"location":{"latitude":49.942242,"longitude":19.878483},"address":{"country":"Poland","city":"Mogilany","street":"Podedworze","number":"88","displayAddress1":"Mogilany","displayAddress2":"Podedworze"},"elevation":385.83,"airly":true,"sponsor":{"id":273,"name":"Anonymous SmogFighter","description":"","logo":"https://cdn.airly.eu/logo/Smogfighter.jpg","link":"https://www.facebook.com/airlyeu/"}},{"id":473,"location":{"latitude":49.95096,"longitude":20.03479},"address":{"country":"Poland","city":"Koźmice Wielkie","street":null,"number":null,"displayAddress1":"Koźmice Wielkie","displayAddress2":null},"elevation":318.77,"airly":true,"sponsor":{"id":224,"name":"Wieliczka","description":"Airly Sensor's sponsor","logo":"https://cdn.airly.eu/logo/Wieliczka.jpg","link":null}},{"id":2599,"location":{"latitude":50.039521,"longitude":20.134673},"address":{"country":"Poland","city":"Grabie","street":null,"number":null,"displayAddress1":"Grabie","displayAddress2":null},"elevation":192.72,"airly":true,"sponsor":{"id":224,"name":"Wieliczka","description":"Airly Sensor's sponsor","logo":"https://cdn.airly.eu/logo/Wieliczka.jpg","link":null}},{"id":10355,"location":{"latitude":49.992088,"longitude":20.104929},"address":{"country":"Poland","city":"Sułków","street":null,"number":null,"displayAddress1":"Sułków","displayAddress2":null},"elevation":265.63,"airly":true,"sponsor":{"id":224,"name":"Wieliczka","description":"Airly Sensor's sponsor","logo":"https://cdn.airly.eu/logo/Wieliczka.jpg","link":null}},{"id":207,"location":{"latitude":50.174264,"longitude":19.849742},"address":{"country":"Poland","city":"Prądnik Korzkiewski","street":"Ojca Smolikowskiego","number":"3","displayAddress1":"Prądnik Korzkiewski","displayAddress2":"Ojca Smolikowskiego"},"elevation":301.54,"airly":true,"sponsor":{"id":225,"name":"Wielka Wieś","description":"Airly Sensor's sponsor","logo":"https://cdn.airly.eu/logo/Wielka_Wies.jpg","link":null}},{"id":3372,"location":{"latitude":50.009496,"longitude":20.120855},"address":{"country":"Poland","city":"Węgrzce Wielkie","street":"San Antonio","number":null,"displayAddress1":"Węgrzce Wielkie","displayAddress2":"San Antonio"},"elevation":233.62,"airly":true,"sponsor":{"id":22,"name":"Aviva","description":"Airly Sensor's sponsor","logo":"https://cdn.airly.eu/logo/Aviva_1538146740542_399306786.jpg","link":"https://wiemczymoddycham.pl/"}},{"id":8082,"location":{"latitude":49.987999,"longitude":19.779314},"address":{"country":"Poland","city":"Jeziorzany","street":null,"number":null,"displayAddress1":"Jeziorzany","displayAddress2":null},"elevation":208.61,"airly":true,"sponsor":{"id":117,"name":"Liszki","description":"Airly Sensor's sponsor","logo":"https://cdn.airly.eu/logo/Liszki.jpg","link":null}},{"id":413,"location":{"latitude":50.147556,"longitude":19.793444},"address":{"country":"Poland","city":"Bolechowice","street":"Szkolna","number":"37","displayAddress1":"Bolechowice","displayAddress2":"Szkolna"},"elevation":281.29,"airly":true,"sponsor":{"id":229,"name":"Zabierzów","description":"Airly Sensor's sponsor","logo":"https://cdn.airly.eu/logo/Zabierzow.jpg","link":null}},{"id":5763,"location":{"latitude":49.934395,"longitude":19.944468},"address":{"country":"Poland","city":"Świątniki Górne","street":"Bruchnalskiego","number":"35","displayAddress1":"Świątniki Górne","displayAddress2":"Bruchnalskiego"},"elevation":363.56,"airly":true,"sponsor":{"id":206,"name":"Świątniki Górne","description":"Airly Sensor's sponsor","logo":"https://cdn.airly.eu/logo/Swiatniki_Gorne.jpg","link":null}},{"id":274,"location":{"latitude":50.167398,"longitude":19.828381},"address":{"country":"Poland","city":"Biały Kościół","street":"Królowej Jadwigi","number":"4","displayAddress1":"Biały Kościół","displayAddress2":"Królowej Jadwigi"},"elevation":400.49,"airly":true,"sponsor":{"id":225,"name":"Wielka Wieś","description":"Airly Sensor's sponsor","logo":"https://cdn.airly.eu/logo/Wielka_Wies.jpg","link":null}},{"id":6887,"location":{"latitude":49.93483,"longitude":19.961107},"address":{"country":"Poland","city":"Świątniki Górne","street":"Franciszka Bielowicza","number":"20","displayAddress1":"Świątniki Górne","displayAddress2":"Franciszka Bielowicza"},"elevation":376.38,"airly":true,"sponsor":{"id":206,"name":"Świątniki Górne","description":"Airly Sensor's sponsor","logo":"https://cdn.airly.eu/logo/Swiatniki_Gorne.jpg","link":null}},{"id":2436,"location":{"latitude":50.179558,"longitude":19.860256},"address":{"country":"Poland","city":"Maszyce","street":null,"number":null,"displayAddress1":"Maszyce","displayAddress2":null},"elevation":374.23,"airly":true,"sponsor":{"id":188,"name":"Skała","description":"Airly Sensor's sponsor","logo":"https://cdn.airly.eu/logo/Skala.jpg","link":null}},{"id":332,"location":{"latitude":50.175018,"longitude":20.039064},"address":{"country":"Poland","city":"Zagórzyce Dworskie","street":null,"number":null,"displayAddress1":"Zagórzyce Dworskie","displayAddress2":null},"elevation":315.7,"airly":true,"sponsor":{"id":127,"name":"Michałowice","description":"Airly Sensor's sponsor","logo":"https://cdn.airly.eu/logo/Michalowice.jpg","link":null}},{"id":7053,"location":{"latitude":50.16917,"longitude":19.82711},"address":{"country":"Poland","city":"Biały Kościół","street":"Krakowska","number":"172","displayAddress1":"Biały Kościół","displayAddress2":"Krakowska"},"elevation":399.85,"airly":true,"sponsor":{"id":225,"name":"Wielka Wieś","description":"Airly Sensor's sponsor","logo":"https://cdn.airly.eu/logo/Wielka_Wies.jpg","link":null}},{"id":350,"location":{"latitude":50.183804,"longitude":20.022509},"address":{"country":"Poland","city":"Wola Więcławska","street":null,"number":null,"displayAddress1":"Wola Więcławska","displayAddress2":null},"elevation":275.57,"airly":true,"sponsor":{"id":127,"name":"Michałowice","description":"Airly Sensor's sponsor","logo":"https://cdn.airly.eu/logo/Michalowice.jpg","link":null}},{"id":7384,"location":{"latitude":49.961289,"longitude":20.075127},"address":{"country":"Poland","city":"Mietniów","street":null,"number":null,"displayAddress1":"Mietniów","displayAddress2":null},"elevation":391.64,"airly":true,"sponsor":{"id":224,"name":"Wieliczka","description":"Airly Sensor's sponsor","logo":"https://cdn.airly.eu/logo/Wieliczka.jpg","link":null}},{"id":2869,"location":{"latitude":50.136154,"longitude":20.113141},"address":{"country":"Poland","city":"Luborzyca","street":null,"number":null,"displayAddress1":"Luborzyca","displayAddress2":null},"elevation":288.97,"airly":true,"sponsor":{"id":63,"name":"Gmina Kocmyrzów-Luborzyca","description":"Airly Sensor's sponsor","logo":"https://cdn.airly.eu/logo/Gmina_Kocmyrzow-Luborzyca.jpg","link":null}},{"id":6116,"location":{"latitude":50.113705,"longitude":19.747568},"address":{"country":"Poland","city":null,"street":"Droga Krajowa 79","number":"28","displayAddress1":null,"displayAddress2":"Droga Krajowa 79"},"elevation":258.19,"airly":true,"sponsor":{"id":229,"name":"Zabierzów","description":"Airly Sensor's sponsor","logo":"https://cdn.airly.eu/logo/Zabierzow.jpg","link":null}},{"id":318,"location":{"latitude":50.194065,"longitude":19.900494},"address":{"country":"Poland","city":"Szczodrkowice","street":null,"number":null,"displayAddress1":"Szczodrkowice","displayAddress2":null},"elevation":375.5,"airly":true,"sponsor":{"id":188,"name":"Skała","description":"Airly Sensor's sponsor","logo":"https://cdn.airly.eu/logo/Skala.jpg","link":null}},{"id":7912,"location":{"latitude":50.158688,"longitude":19.794548},"address":{"country":"Poland","city":null,"street":"Jana Pawła II","number":"24","displayAddress1":null,"displayAddress2":"Jana Pawła II"},"elevation":399.95,"airly":true,"sponsor":{"id":229,"name":"Zabierzów","description":"Airly Sensor's sponsor","logo":"https://cdn.airly.eu/logo/Zabierzow.jpg","link":null}}]